"request_id","created_date","closed_date","status","communityboardid","address","cross_street","landmark","locationtype","facilitytype","addresstype","vehicletype","agency_code","responsibleagency","requesttype","category","request_details","source","latitude","longitude"
41316299,"2019-01-01 10:49:00+00","2019-01-02 09:30:00+00","Closed","12 QUEENS",NULL,NULL,NULL,NULL,"N/A","INTERSECTION",NULL,"DEP","Department of Environmental Protection","Sewer","Catch Basin Clogged/Flooding (Use Comments) (SC)",NULL,"PHONE",40.6889893645812,-73.7806338859158
41326633,"2019-01-02 13:08:10+00","2019-04-11 00:00:00+00","Closed","04 BRONX","165 EAST  170 STREET, BRONX, NY 10452",NULL,NULL,"Comercial","N/A","ADDRESS",NULL,"DSNY","Department of Sanitation","Graffiti","Graffiti","The City has removed the graffiti from this property.","UNKNOWN",40.8390681644884,-73.914648364987
41317948,"2019-01-01 09:24:00+00","2019-01-03 12:00:00+00","Closed","14 QUEENS",NULL,NULL,NULL,"Sidewalk","DSNY Garage","INTERSECTION",NULL,"DSNY","BCC - Queens East","Sanitation Condition","12 Dead Animals","The Department of Sanitation cleaned the location.","PHONE",40.6026910171006,-73.7630014210228
41317675,"2019-01-01 11:31:00+00","2019-01-05 00:00:00+00","Closed","04 MANHATTAN","313 WEST   17 STREET, NEW YORK, NY 10011","8 AVENUE & 9 AVENUE",NULL,"Sidewalk","N/A","ADDRESS",NULL,"DSNY","Department of Sanitation","Request Large Bulky Item Collection","Request Large Bulky Item Collection",NULL,"PHONE",40.7419554766861,-74.0017935353646
41315412,"2019-01-01 12:38:00+00","2019-01-08 00:00:00+00","Closed","13 QUEENS","218-22 93 AVENUE, Queens Village, NY 11428","218 STREET & 218 PLACE",NULL,"Sidewalk","N/A","ADDRESS",NULL,"DSNY","Department of Sanitation","Request Large Bulky Item Collection","Request Large Bulky Item Collection",NULL,"PHONE",40.72174348024,-73.7388938835825
41325212,"2019-01-01 13:14:57+00","2019-01-02 10:45:00+00","Closed","11 QUEENS",NULL,NULL,NULL,NULL,"N/A","INTERSECTION",NULL,"DOT","Department of Transportation","Street Condition","Pothole","The Department of Transportation inspected this complaint and repaired the problem.","UNKNOWN",40.7564115029366,-73.7892912605449
41317021,"2019-01-01 14:26:00+00","2019-01-03 15:04:00+00","Closed","06 BROOKLYN","147 NELSON STREET, BROOKLYN, NY 11231","CLINTON STREET & COURT STREET",NULL,"Sidewalk","N/A","ADDRESS",NULL,"DSNY","Department of Sanitation","Request Large Bulky Item Collection","Request Large Bulky Item Collection",NULL,"PHONE",40.6768167788776,-73.9998702128601
41315149,"2019-01-01 14:54:00+00","2019-01-03 00:00:00+00","Closed","17 BROOKLYN","120 EAST   88 STREET, BROOKLYN, NY 11236","AVENUE A & AVENUE B",NULL,"Sidewalk","N/A","ADDRESS",NULL,"DSNY","Department of Sanitation","Request Large Bulky Item Collection","Request Large Bulky Item Collection",NULL,"PHONE",40.6497165709635,-73.9190961615167
41318787,"2019-01-01 20:43:00+00","2019-01-08 00:00:00+00","Closed","06 BROOKLYN","138 SACKETT STREET, BROOKLYN, NY 11231","COLUMBIA STREET & HICKS STREET",NULL,"Sidewalk","N/A","ADDRESS",NULL,"DSNY","Department of Sanitation","Request Large Bulky Item Collection","Request Large Bulky Item Collection",NULL,"PHONE",40.6849303056735,-74.0022499174804
41316869,"2019-01-01 21:16:00+00","2019-01-03 00:00:00+00","Closed","18 BROOKLYN","2256 RALPH AVENUE, BROOKLYN, NY 11234","EAST 66 STREET & AVENUE M",NULL,"Sidewalk","N/A","ADDRESS",NULL,"DSNY","Department of Sanitation","Request Large Bulky Item Collection","Request Large Bulky Item Collection",NULL,"PHONE",40.6228742433871,-73.9176265444797
41315727,"2019-01-01 21:37:00+00","2019-01-03 00:00:00+00","Closed","04 BRONX","627 WALTON AVENUE, BRONX, NY 10451","EAST 150 STREET & EAST 151 STREET",NULL,"Sidewalk","N/A","ADDRESS",NULL,"DSNY","Department of Sanitation","Request Large Bulky Item Collection","Request Large Bulky Item Collection",NULL,"PHONE",40.8206518002778,-73.927675144528
41321451,"2019-01-02 09:32:00+00","2019-01-05 00:00:00+00","Closed","05 QUEENS","60-17 74 STREET, Middle Village, NY 11379","BEND & ELIOT AVENUE",NULL,"Sidewalk","N/A","ADDRESS",NULL,"DSNY","Department of Sanitation","Request Large Bulky Item Collection","Request Large Bulky Item Collection",NULL,"PHONE",40.7233342012721,-73.8866744329571
41324601,"2019-01-02 09:32:02+00","2019-01-07 09:59:30+00","Closed","18 BROOKLYN",NULL,NULL,NULL,"Property Address","N/A","ADDRESS",NULL,"DOF","Correspondence Unit","DOF Property - Request Copy","Copy of Statement","The Department of Finance mailed the requested item.","PHONE",NULL,NULL
41327940,"2019-01-02 10:27:26+00","2019-01-08 10:37:58+00","Closed","03 STATEN ISLAND",NULL,NULL,NULL,"Park","N/A",NULL,NULL,"DPR","Department of Parks and Recreation","Damaged Tree","Entire Tree Has Fallen Down","The Department of Parks and Recreation performed the work necessary to correct the condition.","OTHER",NULL,NULL
41326840,"2019-01-02 10:45:58+00","2019-02-15 10:35:29+00","Closed","02 MANHATTAN","426 WEST 14 STREET, NEW YORK, NY 10014","9 AVENUE & WASHINGTON STREET",NULL,"Property Address","N/A","ADDRESS",NULL,"DOF","External Affairs Unit","DOF Property - Payment Issue","Payment Not Posted","See notes.","PHONE",40.7414145915392,-74.0064956487936
41320003,"2019-01-02 11:26:54+00","2019-01-03 08:30:00+00","Closed","02 STATEN ISLAND",NULL,NULL,NULL,NULL,"N/A","INTERSECTION",NULL,"DOT","Department of Transportation","Street Condition","Pothole","The Department of Transportation inspected this complaint and repaired the problem.","UNKNOWN",40.5900229094126,-74.1493097266144
41320419,"2019-01-02 11:35:00+00","2019-01-04 00:00:00+00","Closed","03 QUEENS","34-12 113 STREET, Corona, NY 11368","34 AVENUE & 37 AVENUE",NULL,"Sidewalk","N/A","ADDRESS",NULL,"DSNY","Department of Sanitation","Request Large Bulky Item Collection","Request Large Bulky Item Collection",NULL,"PHONE",40.7564809432836,-73.855738648511
41324838,"2019-01-02 15:01:00+00","2019-01-04 00:00:00+00","Closed","06 BROOKLYN","95 3 STREET, BROOKLYN, NY 11231","HOYT STREET & BOND STREET",NULL,"Sidewalk","N/A","ADDRESS",NULL,"DSNY","Department of Sanitation","Request Large Bulky Item Collection","Request Large Bulky Item Collection",NULL,"PHONE",40.6773655035404,-73.9927210446703
41326968,"2019-01-02 15:13:00+00","2019-01-10 00:00:00+00","Closed","10 BROOKLYN","98 GELSTON AVENUE, BROOKLYN, NY 11209","88 STREET & 90 STREET",NULL,"Sidewalk","N/A","ADDRESS",NULL,"DSNY","Department of Sanitation","Request Large Bulky Item Collection","Request Large Bulky Item Collection",NULL,"PHONE",40.6189315834658,-74.0271344079657
41329233,"2019-01-02 15:30:00+00","2019-01-03 12:00:00+00","Closed","03 BROOKLYN","90 QUINCY STREET, BROOKLYN, NY 11238",NULL,NULL,"Street","DSNY Garage","ADDRESS",NULL,"DSNY","Brooklyn North 03","Sanitation Condition","15 Street Cond/Dump-Out/Drop-Off","The Department of Sanitation removed the items.","PHONE",40.6861357571502,-73.9577411689404
41323164,"2019-01-02 15:30:06+00","2019-01-03 09:59:46+00","Closed","07 QUEENS",NULL,NULL,NULL,"Property Address","N/A","ADDRESS",NULL,"DOF","Land Records","DOF Property - Update Account","Billing Address Incorrect","See notes.","PHONE",NULL,NULL
41323941,"2019-01-02 15:37:59+00","2019-04-08 00:00:00+00","Closed","01 BROOKLYN","16 COOK STREET, BROOKLYN, NY 11206",NULL,NULL,"Mixed Use","N/A","ADDRESS",NULL,"DSNY","Department of Sanitation","Graffiti","Graffiti","The City inspected the property for cleaning, but no graffiti was found.","UNKNOWN",40.7022468544474,-73.9433479385509
41322537,"2019-01-02 15:49:00+00","2019-01-04 00:00:00+00","Closed","08 BROOKLYN","1351 BERGEN STREET, BROOKLYN, NY 11213","REVERE PLACE & ALBANY AVENUE",NULL,"Sidewalk","N/A","ADDRESS",NULL,"DSNY","Department of Sanitation","Request Large Bulky Item Collection","Request Large Bulky Item Collection",NULL,"PHONE",40.6755577136703,-73.9399277096034
41324834,"2019-01-02 15:49:00+00","2019-01-05 00:00:00+00","Closed","05 QUEENS","75-25 67 ROAD, Middle Village, NY 11379","75 STREET & 78 STREET",NULL,"Sidewalk","N/A","ADDRESS",NULL,"DSNY","Department of Sanitation","Request Large Bulky Item Collection","Request Large Bulky Item Collection",NULL,"PHONE",40.7122384007658,-73.8772101859473
41325551,"2019-01-02 16:24:18+00","2019-04-15 00:00:00+00","Closed","03 QUEENS","90-17 31 AVENUE, East Elmhurst, NY 11369",NULL,NULL,"Comercial","N/A","ADDRESS",NULL,"DSNY","Department of Sanitation","Graffiti","Graffiti","The City has removed the graffiti from this property.","UNKNOWN",40.7600477636645,-73.8783493502393
41322453,"2019-01-02 16:29:42+00",NULL,"Open","Unspecified BROOKLYN","733 39 street",NULL,NULL,NULL,"N/A","ADDRESS",NULL,"DSNY","Department of Sanitation","Graffiti","Graffiti",NULL,"UNKNOWN",NULL,NULL
41319376,"2019-01-02 17:13:00+00","2019-01-08 09:41:00+00","Closed","05 QUEENS","58-20 FRESH POND ROAD, Maspeth, NY 11378","FLUSHING AVENUE & 59 AVENUE",NULL,"Sidewalk","N/A","ADDRESS",NULL,"DSNY","Department of Sanitation","Request Large Bulky Item Collection","Request Large Bulky Item Collection",NULL,"PHONE",40.7209775935116,-73.9029450624397
41325905,"2019-01-02 17:13:00+00","2019-01-04 00:00:00+00","Closed","10 QUEENS","91-17 GOLD ROAD, Ozone Park, NY 11417","SITKA STREET & BEND",NULL,"Sidewalk","N/A","ADDRESS",NULL,"DSNY","Department of Sanitation","Request Large Bulky Item Collection","Request Large Bulky Item Collection",NULL,"PHONE",40.674340890043,-73.8450037762503
41320048,"2019-01-02 12:32:27+00","2019-01-03 10:02:52+00","Closed","08 MANHATTAN",NULL,NULL,NULL,"Property Address","N/A","ADDRESS",NULL,"DOF","Land Records","DOF Property - Update Account","Billing Address Incorrect","See notes.","PHONE",NULL,NULL
41327070,"2019-01-02 17:21:00+00","2019-01-04 00:00:00+00","Closed","10 BRONX","230 CALHOUN AVENUE, BRONX, NY 10465","HARDING AVENUE & LAWTON AVENUE",NULL,"Sidewalk","N/A","ADDRESS",NULL,"DSNY","Department of Sanitation","Request Large Bulky Item Collection","Request Large Bulky Item Collection",NULL,"PHONE",40.8163697784578,-73.8179565959525
41320357,"2019-01-02 17:24:00+00","2019-01-05 00:00:00+00","Closed","04 QUEENS","40-31 ASKE STREET, Elmhurst, NY 11373","WHITNEY AVENUE & 94 STREET",NULL,"Sidewalk","N/A","ADDRESS",NULL,"DSNY","Department of Sanitation","Request Large Bulky Item Collection","Request Large Bulky Item Collection",NULL,"PHONE",40.7482588001297,-73.8730150205474
41322563,"2019-01-02 17:47:00+00","2019-01-05 00:00:00+00","Closed","09 QUEENS","91-02 109 STREET, Richmond Hill, NY 11418","91 AVENUE & ATLANTIC AVENUE",NULL,"Sidewalk","N/A","ADDRESS",NULL,"DSNY","Department of Sanitation","Request Large Bulky Item Collection","Request Large Bulky Item Collection",NULL,"PHONE",40.6930277963207,-73.8373875658192
41322562,"2019-01-02 18:03:00+00","2019-01-06 00:00:00+00","Closed","07 MANHATTAN","515 WEST   59 STREET, NEW YORK, NY 10019","10 AVENUE & 11 AVENUE",NULL,"Sidewalk","N/A","ADDRESS",NULL,"DSNY","Department of Sanitation","Request Large Bulky Item Collection","Request Large Bulky Item Collection",NULL,"PHONE",40.7707225725096,-73.9883207380328
41325863,"2019-01-02 18:03:00+00","2019-01-06 00:00:00+00","Closed","11 BRONX","1742 UNIONPORT ROAD, BRONX, NY 10462","BEND & AMETHYST STREET",NULL,"Sidewalk","N/A","ADDRESS",NULL,"DSNY","Department of Sanitation","Request Large Bulky Item Collection","Request Large Bulky Item Collection",NULL,"PHONE",40.8444253547141,-73.867608804413
41320363,"2019-01-02 18:11:00+00","2019-01-04 00:00:00+00","Closed","01 BROOKLYN","132 MIDDLETON STREET, BROOKLYN, NY 11206","MARCY AVENUE & HARRISON AVENUE",NULL,"Sidewalk","N/A","ADDRESS",NULL,"DSNY","Department of Sanitation","Request Large Bulky Item Collection","Request Large Bulky Item Collection",NULL,"PHONE",40.7026486156338,-73.951610308446
41321454,"2019-01-02 18:54:00+00","2019-01-05 00:00:00+00","Closed","02 STATEN ISLAND","119 MILDEN AVENUE, STATEN ISLAND, NY 10301","BEND & DEAD END",NULL,"Sidewalk","N/A","ADDRESS",NULL,"DSNY","Department of Sanitation","Request Large Bulky Item Collection","Request Large Bulky Item Collection",NULL,"PHONE",40.6079833649681,-74.0969230811423
41322529,"2019-01-02 19:02:00+00","2019-01-06 00:00:00+00","Closed","06 QUEENS","92-07 68 AVENUE, Forest Hills, NY 11375","KESSEL STREET & JUNO STREET",NULL,"Sidewalk","N/A","ADDRESS",NULL,"DSNY","Department of Sanitation","Request Large Bulky Item Collection","Request Large Bulky Item Collection",NULL,"PHONE",40.7157896507761,-73.855520099743
41320410,"2019-01-02 20:47:00+00","2019-01-03 15:56:00+00","Closed","05 QUEENS","73-32 67 ROAD, Middle Village, NY 11379","73 PLACE & 75 STREET",NULL,"Sidewalk","N/A","ADDRESS",NULL,"DSNY","Department of Sanitation","Request Large Bulky Item Collection","Request Large Bulky Item Collection",NULL,"PHONE",40.7120480900003,-73.878931126748
41318369,"2019-01-01 05:22:58+00","2019-01-04 12:50:00+00","Closed","13 QUEENS","136-24 241 STREET, Rosedale, NY 11422","136 AVENUE & 137 AVENUE",NULL,NULL,"N/A","ADDRESS",NULL,"DOT","Department of Transportation","Street Condition","Pothole","The Department of Transportation inspected this complaint and repaired the problem.","UNKNOWN",40.6702173981297,-73.7348238408393
41324690,"2019-01-02 21:06:00+00","2019-01-06 00:00:00+00","Closed","01 QUEENS","49-06 28 AVENUE, Woodside, NY 11377","49 STREET & 50 STREET",NULL,"Sidewalk","N/A","ADDRESS",NULL,"DSNY","Department of Sanitation","Request Large Bulky Item Collection","Request Large Bulky Item Collection",NULL,"PHONE",40.7620309441796,-73.9063651005532
41318224,"2019-01-01 09:33:00+00","2019-01-04 00:00:00+00","Closed","03 STATEN ISLAND","129 GERVIL STREET, STATEN ISLAND, NY 10309","LOCUST COURT & CORRELL AVENUE",NULL,"Sidewalk","N/A","ADDRESS",NULL,"DSNY","Department of Sanitation","Request Large Bulky Item Collection","Request Large Bulky Item Collection",NULL,"PHONE",40.5466470183408,-74.2119219403059
41318479,"2019-01-01 09:33:00+00","2019-01-03 00:00:00+00","Closed","17 BROOKLYN","721 EAST   49 STREET, BROOKLYN, NY 11203","CLARENDON ROAD & AVENUE D",NULL,"Sidewalk","N/A","ADDRESS",NULL,"DSNY","Department of Sanitation","Request Large Bulky Item Collection","Request Large Bulky Item Collection",NULL,"PHONE",40.6436992387542,-73.9305226647513
41324913,"2019-01-02 21:06:00+00","2019-01-04 00:00:00+00","Closed","10 QUEENS","153-10 79 STREET, Howard Beach, NY 11414","153 AVENUE & 155 AVENUE",NULL,"Sidewalk","N/A","ADDRESS",NULL,"DSNY","Department of Sanitation","Request Large Bulky Item Collection","Request Large Bulky Item Collection",NULL,"PHONE",40.6653812791336,-73.8550345296881
41319150,"2019-01-01 11:06:00+00","2019-01-04 00:00:00+00","Closed","11 QUEENS","59-19 FRESH MEADOW LANE, Fresh Meadows, NY 11365","59 AVENUE & HORACE HARDING EXPRESSWAY",NULL,"Sidewalk","N/A","ADDRESS",NULL,"DSNY","Department of Sanitation","Request Large Bulky Item Collection","Request Large Bulky Item Collection",NULL,"PHONE",40.7397125554805,-73.7970159791843
41315277,"2019-01-01 13:19:00+00","2019-01-01 13:19:00+00","Pending","05 BROOKLYN","307 AUTUMN AVENUE, BROOKLYN, NY 11208","FULTON STREET & ATLANTIC AVENUE",NULL,"Street","DSNY Garage","ADDRESS",NULL,"DSNY","BCC - Brooklyn North","Derelict Vehicles","14 Derelict Vehicles","The Department of Sanitation removed the items.","PHONE",40.6827955149551,-73.8699523950797
41315472,"2019-01-01 13:19:00+00","2019-01-05 00:00:00+00","Closed","12 QUEENS","171-38 105 AVENUE, Jamaica, NY 11433","171 PLACE & 172 STREET",NULL,"Sidewalk","N/A","ADDRESS",NULL,"DSNY","Department of Sanitation","Request Large Bulky Item Collection","Request Large Bulky Item Collection",NULL,"PHONE",40.7021101300913,-73.7853910656906
41315734,"2019-01-01 13:19:00+00","2019-01-05 12:00:00+00","Closed","01 STATEN ISLAND",NULL,NULL,NULL,"Sidewalk","DSNY Garage","INTERSECTION",NULL,"DSNY","BCC - Staten Island","Sanitation Condition","12 Dead Animals","The Department of Sanitation cleaned the location.","PHONE",40.60503007217,-74.0657385354423
41309406,"2019-01-01 00:24:55+00","2019-01-07 15:42:40+00","Closed","09 BROOKLYN","853 EAST NEW YORK AVENUE, BROOKLYN, NY 11203","SCHENECTADY AVENUE & REMSEN AVENUE",NULL,"Sidewalk","N/A","ADDRESS",NULL,"DOT","Department of Transportation","Curb Condition","Broken Curb","The Department of Transportation has determined that this issue is not within its jurisdiction.","MOBILE",40.6625965026964,-73.9342299637366
41309122,"2019-01-01 00:00:00+00","2019-01-10 00:00:00+00","Closed","Unspecified QUEENS","90-34 52 AVENUE, ELMHURST, NY 11373",NULL,NULL,"3+ Family Apt. Building","N/A","LATLONG",NULL,"DOHMH","Department of Health and Mental Hygiene","Rodent","Mouse Sighting","The Department of Health and Mental Hygiene will review your complaint to determine appropriate action.  Complaints of this type usually result in an inspection.  Please call 311 in 30 days from the date of your complaint for status","MOBILE",40.7388739110531,-73.8724916229161
41310910,"2019-01-01 00:00:00+00","2019-01-01 00:00:00+00","Closed","Unspecified BRONX","899 EAST 169 STREET, BRONX, NY 10459",NULL,NULL,"3+ Family Apt. Building","N/A","LATLONG",NULL,"DOHMH","Department of Health and Mental Hygiene","Rodent","Rat Sighting","The Department of Health and Mental Hygiene will review your complaint to determine appropriate action.  Complaints of this type usually result in an inspection.  Please call 311 in 30 days from the date of your complaint for status","MOBILE",40.8284687465982,-73.8954530352682
41314898,"2019-01-01 00:00:00+00","2019-01-01 00:00:00+00","Closed","05 BROOKLYN","790 ELDERT LANE, BROOKLYN, NY 11208","DUMONT AVENUE & LINDEN BOULEVARD",NULL,"Other (Explain Below)","N/A","ADDRESS",NULL,"DOHMH","Department of Health and Mental Hygiene","Rodent","Condition Attracting Rodents","The Department of Health and Mental Hygiene will review your complaint to determine appropriate action.  Complaints of this type usually result in an inspection.  Please call 311 in 30 days from the date of your complaint for status","PHONE",40.6705540987998,-73.8631053928292
41315045,"2019-01-01 00:00:00+00","2019-01-03 00:00:00+00","Closed","12 QUEENS",NULL,NULL,NULL,"Commercial Building","N/A","INTERSECTION",NULL,"DOHMH","Department of Health and Mental Hygiene","Rodent","Condition Attracting Rodents","The Department of Health and Mental Hygiene will review your complaint to determine appropriate action.  Complaints of this type usually result in an inspection.  Please call 311 in 30 days from the date of your complaint for status","PHONE",40.7052386849538,-73.7750729115017
41309421,"2019-01-01 00:06:00+00","2019-01-10 00:00:00+00","Closed","15 BROOKLYN","1866 EAST   13 STREET, BROOKLYN, NY 11229","AVENUE R & AVENUE S",NULL,"Sidewalk","N/A","ADDRESS",NULL,"DSNY","Department of Sanitation","Request Large Bulky Item Collection","Request Large Bulky Item Collection",NULL,"PHONE",40.6041523567207,-73.959312799039
41315071,"2019-01-01 00:00:00+00","2019-01-02 00:00:00+00","Closed","Unspecified BRONX","2825 CLAFLIN AVENUE, BRONX, NY 10468",NULL,NULL,"3+ Family Apt. Building","N/A","LATLONG",NULL,"DOHMH","Department of Health and Mental Hygiene","Rodent","Mouse Sighting","The Department of Health and Mental Hygiene will review your complaint to determine appropriate action.  Complaints of this type usually result in an inspection.  Please call 311 in 30 days from the date of your complaint for status","MOBILE",40.8727944007029,-73.9001345382538
41315216,"2019-01-01 00:00:00+00","2019-01-16 00:00:00+00","Closed","14 QUEENS","152 BEACH  118 STREET, Rockaway Park, NY 11694","OCEAN PROMENADE & ROCKAWAY BEACH BOULEVARD",NULL,"3+ Family Apartment Building","N/A","ADDRESS",NULL,"DOHMH","Department of Health and Mental Hygiene","Unsanitary Pigeon Condition","Pigeon Waste","The Department of Health and Mental Hygiene will review your complaint to determine appropriate action.  Complaints of this type usually result in an inspection.  Please call 311 in 30 days from the date of your complaint for status","PHONE",40.5783023947916,-73.838376064123
41315249,"2019-01-01 00:00:00+00","2019-01-03 00:00:00+00","Closed","02 BROOKLYN","321 CARLTON AVENUE, BROOKLYN, NY 11205","DEKALB AVENUE & LAFAYETTE AVENUE",NULL,"Other (Explain Below)","N/A","ADDRESS",NULL,"DOHMH","Department of Health and Mental Hygiene","Rodent","Rat Sighting","The Department of Health and Mental Hygiene will review your complaint to determine appropriate action.  Complaints of this type usually result in an inspection.  Please call 311 in 30 days from the date of your complaint for status","PHONE",40.6881849267869,-73.9718458117843
41315356,"2019-01-01 00:00:00+00","2019-01-03 00:00:00+00","Closed","03 BROOKLYN","975 BEDFORD AVENUE, BROOKLYN, NY 11205","DEKALB AVENUE & KOSCIUSZKO STREET",NULL,"Commercial Building","N/A","ADDRESS",NULL,"DOHMH","Department of Health and Mental Hygiene","Unsanitary Pigeon Condition","Pigeon Waste","The Department of Health and Mental Hygiene will review your complaint to determine appropriate action.  Complaints of this type usually result in an inspection.  Please call 311 in 30 days from the date of your complaint for status","PHONE",40.690685687266,-73.9553583591566
41315359,"2019-01-01 00:00:00+00","2019-01-03 00:00:00+00","Closed","07 QUEENS","28-13 150 STREET, Flushing, NY 11354","28 AVENUE & 29 AVENUE",NULL,"1-2 Family Dwelling","N/A","ADDRESS",NULL,"DOHMH","Department of Health and Mental Hygiene","Unsanitary Animal Pvt Property","Dog","The Department of Health and Mental Hygiene will review your complaint to determine appropriate action.  Complaints of this type usually result in an inspection.  Please call 311 in 30 days from the date of your complaint for status","ONLINE",40.7727795023763,-73.8155159812475
41315446,"2019-01-01 00:00:00+00","2019-01-02 00:00:00+00","Closed","03 BROOKLYN","829 HALSEY STREET, BROOKLYN, NY 11233","HOWARD AVENUE & SARATOGA AVENUE",NULL,"3+ Family Apt. Building","N/A","ADDRESS",NULL,"DOHMH","Department of Health and Mental Hygiene","Rodent","Condition Attracting Rodents","The Department of Health and Mental Hygiene will review your complaint to determine appropriate action.  Complaints of this type usually result in an inspection.  Please call 311 in 30 days from the date of your complaint for status","ONLINE",40.6853138128131,-73.9193955101994
41319148,"2019-01-01 13:19:00+00","2019-01-04 00:00:00+00","Closed","07 MANHATTAN","333 WEST   87 STREET, NEW YORK, NY 10024","WEST END AVENUE & RIVERSIDE DRIVE",NULL,"Sidewalk","N/A","ADDRESS",NULL,"DSNY","Department of Sanitation","Request Large Bulky Item Collection","Request Large Bulky Item Collection",NULL,"PHONE",40.7899644616192,-73.978303157203
41315533,"2019-01-01 00:00:00+00","2019-01-14 00:00:00+00","Closed","03 MANHATTAN","54 HENRY STREET, NEW YORK, NY 10002","CATHERINE STREET & MARKET STREET",NULL,"1-2 Family Dwelling","N/A","ADDRESS",NULL,"DOHMH","Department of Health and Mental Hygiene","Rodent","Rat Sighting","The Department of Health and Mental Hygiene will review your complaint to determine appropriate action.  Complaints of this type usually result in an inspection.  Please call 311 in 30 days from the date of your complaint for status","PHONE",40.7129488071119,-73.9952313442263
41315535,"2019-01-01 00:00:00+00","2019-01-01 00:00:00+00","Closed","11 MANHATTAN","227 EAST   96 STREET, NEW YORK, NY 10128","3 AVENUE & 2 AVENUE",NULL,"3+ Family Apt. Building","N/A","ADDRESS",NULL,"DOHMH","Department of Health and Mental Hygiene","Rodent","Rat Sighting","The Department of Health and Mental Hygiene will review your complaint to determine appropriate action.  Complaints of this type usually result in an inspection.  Please call 311 in 30 days from the date of your complaint for status","PHONE",40.7847316462413,-73.9482212728013
41315592,"2019-01-01 00:00:00+00","2019-01-02 15:51:11+00","Closed","Unspecified QUEENS","172-48 HENLEY ROAD, JAMAICA, NY 11432",NULL,NULL,"1-2 Family Dwelling","N/A","LATLONG",NULL,"DOHMH","Department of Health and Mental Hygiene","Rodent","Mouse Sighting","The Department of Health and Mental Hygiene will review your complaint to determine appropriate action.  Complaints of this type usually result in an inspection.  Please call 311 in 30 days from the date of your complaint for status","MOBILE",40.7141408978982,-73.7900922265526
41316076,"2019-01-01 00:00:00+00","2019-01-02 00:00:00+00","Closed","Unspecified BROOKLYN","829 HALSEY STREET, BROOKLYN, NY 11233",NULL,NULL,"3+ Family Apt. Building","N/A","LATLONG",NULL,"DOHMH","Department of Health and Mental Hygiene","Rodent","Rat Sighting","The Department of Health and Mental Hygiene will review your complaint to determine appropriate action.  Complaints of this type usually result in an inspection.  Please call 311 in 30 days from the date of your complaint for status","MOBILE",40.6855251803212,-73.9194241000672
41316077,"2019-01-01 00:00:00+00","2019-01-03 00:00:00+00","Closed","12 BRONX","4413 EDSON AVENUE, BRONX, NY 10466","NEREID AVENUE & DEAD END",NULL,"1-2 Family Dwelling","N/A","ADDRESS",NULL,"DOHMH","Department of Health and Mental Hygiene","Rodent","Signs of Rodents","The Department of Health and Mental Hygiene will review your complaint to determine appropriate action.  Complaints of this type usually result in an inspection.  Please call 311 in 30 days from the date of your complaint for status","PHONE",40.8995190817678,-73.8471554688175
41316266,"2019-01-01 00:00:00+00","2019-01-07 00:00:01+00","Closed","11 BRONX","1920 EAST GUN HILL ROAD, BRONX, NY 10469","ELY AVENUE & NEW ENGLAND TY SB EN E GUN HILL",NULL,"Restaurant/Bar/Deli/Bakery","N/A","ADDRESS",NULL,"DOHMH","Department of Health and Mental Hygiene","Food Poisoning","1 or 2","The Department of Health and Mental Hygiene will review your complaint within 24 hours.  Complaints of this type usually result in complainant contact and/or inspection by the agency. Initial status will be available 14 days after the date of your complaint by calling 311. If you are experiencing medical symptoms, please seek medical attention or consult the NYC Poison Control Center which can be reached through 311.   Please note your Service Request number for future reference.","PHONE",40.8625041386112,-73.8313839639085
41316419,"2019-01-01 00:00:00+00","2019-01-03 00:00:00+00","Closed","12 MANHATTAN","1318 JUAN PABLO DUARTE BOULEVARD, NEW YORK, NY 10033","WEST 175 STREET & WEST 176 STREET",NULL,"Commercial Building","N/A","ADDRESS",NULL,"DOHMH","Department of Health and Mental Hygiene","Unsanitary Pigeon Condition","Pigeon Waste","The Department of Health and Mental Hygiene will review your complaint to determine appropriate action.  Complaints of this type usually result in an inspection.  Please call 311 in 30 days from the date of your complaint for status","ONLINE",40.8460014785692,-73.9361449634707
41316435,"2019-01-01 00:00:00+00","2019-01-03 15:54:02+00","Closed","09 MANHATTAN","545 WEST  144 STREET, NEW YORK, NY 10031","AMSTERDAM AVENUE & BROADWAY",NULL,"3+ Family Apt. Building","N/A","ADDRESS",NULL,"DOHMH","Department of Health and Mental Hygiene","Rodent","Mouse Sighting","The Department of Health and Mental Hygiene will review your complaint to determine appropriate action.  Complaints of this type usually result in an inspection.  Please call 311 in 30 days from the date of your complaint for status","ONLINE",40.8251043185513,-73.9493677711537
41335877,"2019-01-03 14:28:42+00","2019-02-19 18:49:22+00","Closed","11 QUEENS",NULL,NULL,NULL,"1-, 2- and 3- Family Home","N/A","ADDRESS",NULL,"DOF","Personal Exemption Unit","DOF Property - Reduction Issue","Personal Veteran Exemption","See notes.","PHONE",NULL,NULL
41316530,"2019-01-01 00:00:00+00","2019-01-07 00:00:00+00","Closed","Unspecified QUEENS","37 STREET, ASTORIA, NY 11103","30 AVENUE & 31 AVENUE",NULL,"3+ Family Apt. Building","N/A","BLOCKFACE",NULL,"DOHMH","Department of Health and Mental Hygiene","Rodent","Condition Attracting Rodents","The Department of Health and Mental Hygiene will review your complaint to determine appropriate action.  Complaints of this type usually result in an inspection.  Please call 311 in 30 days from the date of your complaint for status","PHONE",40.7633570336973,-73.9176405153476
41316662,"2019-01-01 00:00:00+00","2019-01-02 00:00:00+00","Closed","Unspecified QUEENS","62-54 JUNCTION BOULEVARD, REGO PARK, NY 11374",NULL,NULL,"Parking Lot/Garage","N/A","LATLONG",NULL,"DOHMH","Department of Health and Mental Hygiene","Rodent","Rat Sighting","The Department of Health and Mental Hygiene will review your complaint to determine appropriate action.  Complaints of this type usually result in an inspection.  Please call 311 in 30 days from the date of your complaint for status","MOBILE",40.7312058276908,-73.8635797450523
41316685,"2019-01-01 00:00:00+00","2019-01-14 00:00:00+00","Closed","05 QUEENS",NULL,NULL,NULL,"1-2 Family Dwelling","N/A","INTERSECTION",NULL,"DOHMH","Department of Health and Mental Hygiene","Rodent","Rat Sighting","The Department of Health and Mental Hygiene will review your complaint to determine appropriate action.  Complaints of this type usually result in an inspection.  Please call 311 in 30 days from the date of your complaint for status","PHONE",40.7217697962582,-73.9083842180483
41316776,"2019-01-01 00:00:00+00","2019-01-24 00:00:00+00","Closed","Unspecified BROOKLYN","698 MIDWOOD STREET, BROOKLYN, NY 11203",NULL,NULL,"1-2 Family Dwelling","N/A","LATLONG",NULL,"DOHMH","Department of Health and Mental Hygiene","Rodent","Condition Attracting Rodents","The Department of Health and Mental Hygiene will review your complaint to determine appropriate action.  Complaints of this type usually result in an inspection.  Please call 311 in 30 days from the date of your complaint for status","MOBILE",40.6607126978152,-73.9375658253524
41316918,"2019-01-01 00:00:00+00","2019-01-03 12:59:29+00","Closed","12 BRONX",NULL,NULL,NULL,"1-2 Family Dwelling","N/A","INTERSECTION",NULL,"DOHMH","Department of Health and Mental Hygiene","Rodent","Signs of Rodents","The Department of Health and Mental Hygiene will review your complaint to determine appropriate action.  Complaints of this type usually result in an inspection.  Please call 311 in 30 days from the date of your complaint for status","PHONE",40.8990522377654,-73.8469684449512
41316968,"2019-01-01 00:00:00+00","2019-01-15 16:28:53+00","Closed","Unspecified BROOKLYN","5906 NEW UTRECHT AVENUE, BROOKLYN, NY 11219",NULL,NULL,"3+ Family Apt. Building","N/A","LATLONG",NULL,"DOHMH","Department of Health and Mental Hygiene","Rodent","Rat Sighting","The Department of Health and Mental Hygiene will review your complaint to determine appropriate action.  Complaints of this type usually result in an inspection.  Please call 311 in 30 days from the date of your complaint for status","MOBILE",40.6283164312422,-73.9966243840344
41327465,"2019-01-01 00:01:44+00","2019-01-02 21:15:00+00","Closed","09 MANHATTAN","WEST  139 STREET, NEW YORK, NY 10031","AMSTERDAM AVENUE & HAMILTON PLACE",NULL,NULL,"N/A","BLOCKFACE",NULL,"DOT","Department of Transportation","Street Condition","Pothole","The Department of Transportation inspected this complaint and repaired the problem.","UNKNOWN",40.8218087211527,-73.9512418406997
41317095,"2019-01-01 00:00:00+00","2019-01-17 00:00:00+00","Closed","01 STATEN ISLAND","91 BROAD STREET, STATEN ISLAND, NY 10304","WRIGHT STREET & QUINN STREET",NULL,"3+ Family Apt. Building","N/A","ADDRESS",NULL,"DOHMH","Department of Health and Mental Hygiene","Rodent","Condition Attracting Rodents","The Department of Health and Mental Hygiene will review your complaint to determine appropriate action.  Complaints of this type usually result in an inspection.  Please call 311 in 30 days from the date of your complaint for status","PHONE",40.6250262754045,-74.0782801800769
41317127,"2019-01-01 00:00:00+00","2019-01-01 00:00:00+00","Closed","08 BRONX","3400 FORT INDEPENDENCE STREET, BRONX, NY 10463","BEND & BAILEY PLACE",NULL,"3+ Family Apt. Building","N/A","ADDRESS",NULL,"DOHMH","Department of Health and Mental Hygiene","Rodent","Condition Attracting Rodents","The Department of Health and Mental Hygiene will review your complaint to determine appropriate action.  Complaints of this type usually result in an inspection.  Please call 311 in 30 days from the date of your complaint for status","PHONE",40.8803497951231,-73.8992769900756
41317185,"2019-01-01 00:00:00+00","2019-01-03 13:02:10+00","Closed","12 QUEENS","111-41 FARMERS BOULEVARD, Saint Albans, NY 11412","111 ROAD & KEESEVILLE AVENUE",NULL,"1-2 Family Dwelling","N/A","ADDRESS",NULL,"DOHMH","Department of Health and Mental Hygiene","Rodent","Rat Sighting","The Department of Health and Mental Hygiene will review your complaint to determine appropriate action.  Complaints of this type usually result in an inspection.  Please call 311 in 30 days from the date of your complaint for status","PHONE",40.7010704973559,-73.7646533054007
41317186,"2019-01-01 00:00:00+00","2019-01-11 00:00:00+00","Closed","07 MANHATTAN","52 WEST  105 STREET, NEW YORK, NY 10025","MANHATTAN AVENUE & COLUMBUS AVENUE",NULL,"Other (Explain Below)","N/A","ADDRESS",NULL,"DOHMH","Department of Health and Mental Hygiene","Rodent","Rat Sighting","The Department of Health and Mental Hygiene will review your complaint to determine appropriate action.  Complaints of this type usually result in an inspection.  Please call 311 in 30 days from the date of your complaint for status","PHONE",40.798084716981,-73.9622353751121
41317187,"2019-01-01 00:00:00+00","2019-01-03 00:00:00+00","Closed","08 BRONX","3424 KINGSBRIDGE AVENUE, BRONX, NY 10463","WEST 234 STREET & WEST 236 STREET",NULL,"3+ Family Apt. Building","N/A","ADDRESS",NULL,"DOHMH","Department of Health and Mental Hygiene","Rodent","Rat Sighting","The Department of Health and Mental Hygiene will review your complaint to determine appropriate action.  Complaints of this type usually result in an inspection.  Please call 311 in 30 days from the date of your complaint for status","PHONE",40.8827222470712,-73.903710677008
41317189,"2019-01-01 00:00:00+00","2019-01-17 00:00:00+00","Closed","Unspecified MANHATTAN","126 WEST 83 STREET, NEW YORK, NY 10024",NULL,NULL,"Other (Explain Below)","N/A","LATLONG",NULL,"DOHMH","Department of Health and Mental Hygiene","Rodent","Signs of Rodents","The Department of Health and Mental Hygiene will review your complaint to determine appropriate action.  Complaints of this type usually result in an inspection.  Please call 311 in 30 days from the date of your complaint for status","MOBILE",40.784803657028,-73.9748237910306
41317253,"2019-01-01 00:00:00+00","2019-01-07 00:00:00+00","Closed","Unspecified MANHATTAN","225 EAST 82 STREET, NEW YORK, NY 10028",NULL,NULL,"3+ Family Apt. Building","N/A","LATLONG",NULL,"DOHMH","Department of Health and Mental Hygiene","Rodent","Mouse Sighting","The Department of Health and Mental Hygiene will review your complaint to determine appropriate action.  Complaints of this type usually result in an inspection.  Please call 311 in 30 days from the date of your complaint for status","MOBILE",40.7759347018357,-73.9545718757413
41317342,"2019-01-01 00:00:00+00","2019-01-08 00:00:00+00","Closed","03 BROOKLYN","190 THROOP AVENUE, BROOKLYN, NY 11206","ELLERY STREET & PARK AVENUE",NULL,"1-2 Family Mixed Use Building","N/A","ADDRESS",NULL,"DOHMH","Department of Health and Mental Hygiene","Unsanitary Pigeon Condition","Pigeon Waste","The Department of Health and Mental Hygiene will review your complaint to determine appropriate action.  Complaints of this type usually result in an inspection.  Please call 311 in 30 days from the date of your complaint for status","ONLINE",40.6984813589476,-73.9440111040953
41317762,"2019-01-01 00:00:00+00","2019-01-02 00:00:00+00","Closed","Unspecified BROOKLYN","827 HALSEY STREET, BROOKLYN, NY 11233",NULL,NULL,"3+ Family Apt. Building","N/A","LATLONG",NULL,"DOHMH","Department of Health and Mental Hygiene","Rodent","Rat Sighting","The Department of Health and Mental Hygiene will review your complaint to determine appropriate action.  Complaints of this type usually result in an inspection.  Please call 311 in 30 days from the date of your complaint for status","MOBILE",40.6855142643242,-73.9195142550098
41317763,"2019-01-01 00:00:00+00","2019-01-03 15:55:28+00","Closed","14 BROOKLYN","229 EAST   18 STREET, BROOKLYN, NY 11226","ALBEMARLE ROAD & BEVERLEY ROAD",NULL,"3+ Family Mixed Use Building","N/A","ADDRESS",NULL,"DOHMH","Department of Health and Mental Hygiene","Rodent","Rat Sighting","The Department of Health and Mental Hygiene will review your complaint to determine appropriate action.  Complaints of this type usually result in an inspection.  Please call 311 in 30 days from the date of your complaint for status","PHONE",40.6456683488209,-73.9623468675383
41317770,"2019-01-01 00:00:00+00","2019-01-03 00:00:00+00","Closed","Unspecified BROOKLYN","917 GREENE AVENUE, BROOKLYN, NY 11221",NULL,NULL,"3+ Family Apt. Building","N/A","LATLONG",NULL,"DOHMH","Department of Health and Mental Hygiene","Rodent","Signs of Rodents","The Department of Health and Mental Hygiene will review your complaint to determine appropriate action.  Complaints of this type usually result in an inspection.  Please call 311 in 30 days from the date of your complaint for status","MOBILE",40.6909617768392,-73.9308592554413
41317774,"2019-01-01 00:00:00+00","2019-01-01 00:00:01+00","Closed","01 BROOKLYN","1 GRAHAM AVENUE, BROOKLYN, NY 11206","BROADWAY & DEBEVOISE STREET",NULL,"Restaurant/Bar/Deli/Bakery","N/A","ADDRESS",NULL,"DOHMH","Department of Health and Mental Hygiene","Food Poisoning","3 or More","Callers should contact the DOHMH Foodborne Illness unit directly at (646) 632-6103 weekdays from 9AM to 5PM.  DOHMH will review your complaint within 24 hours.  Complaints of this type usually result in complainant contact and/or inspection. Initial status will be available 14 days after the date of your complaint. If you are experiencing medical symptoms, please seek medical attention or consult the NYC Poison Control Center.  Please note your Service Request number for future reference.","PHONE",40.7012252515322,-73.9422416053398
41318587,"2019-01-01 00:00:00+00","2019-01-01 00:00:00+00","Closed","04 BRONX","1220 GRAND CONCOURSE, BRONX, NY 10456","EAST 167 STREET & EAST 168 STREET",NULL,"3+ Family Apt. Building","N/A","ADDRESS",NULL,"DOHMH","Department of Health and Mental Hygiene","Rodent","Rat Sighting","The Department of Health and Mental Hygiene will review your complaint to determine appropriate action.  Complaints of this type usually result in an inspection.  Please call 311 in 30 days from the date of your complaint for status","PHONE",40.8349502601911,-73.9172664026056
41318588,"2019-01-01 00:00:00+00","2019-01-01 00:00:00+00","Closed","01 BROOKLYN","131 MCGUINNESS BOULEVARD, BROOKLYN, NY 11222","NORMAN AVENUE & MESEROLE AVENUE",NULL,"3+ Family Apt. Building","N/A","ADDRESS",NULL,"DOHMH","Department of Health and Mental Hygiene","Rodent","Rat Sighting","The Department of Health and Mental Hygiene will review your complaint to determine appropriate action.  Complaints of this type usually result in an inspection.  Please call 311 in 30 days from the date of your complaint for status","ONLINE",40.7269663003966,-73.9495108854742
41318603,"2019-01-01 00:00:00+00","2019-01-15 00:00:00+00","Closed","Unspecified BROOKLYN","5902 NEW UTRECHT AVENUE, BROOKLYN, NY 11219",NULL,NULL,"Vacant Building","N/A","LATLONG",NULL,"DOHMH","Department of Health and Mental Hygiene","Rodent","Rat Sighting","The Department of Health and Mental Hygiene will review your complaint to determine appropriate action.  Complaints of this type usually result in an inspection.  Please call 311 in 30 days from the date of your complaint for status","MOBILE",40.6284481807098,-73.9966099670286
41318604,"2019-01-01 00:00:00+00","2019-01-02 00:00:00+00","Closed","04 BROOKLYN","618 IRVING AVENUE, BROOKLYN, NY 11237","DECATUR STREET & COOPER STREET",NULL,"3+ Family Apt. Building","N/A","ADDRESS",NULL,"DOHMH","Department of Health and Mental Hygiene","Rodent","Rat Sighting","The Department of Health and Mental Hygiene will review your complaint to determine appropriate action.  Complaints of this type usually result in an inspection.  Please call 311 in 30 days from the date of your complaint for status","ONLINE",40.6925116493028,-73.9029684683457
41318810,"2019-01-01 00:00:00+00","2019-01-02 00:00:01+00","Closed","05 BROOKLYN","2797 LINDEN BOULEVARD, BROOKLYN, NY 11208","DREW STREET & RUBY STREET",NULL,"Restaurant/Bar/Deli/Bakery","N/A","ADDRESS",NULL,"DOHMH","Department of Health and Mental Hygiene","Food Poisoning","1 or 2","The Department of Health and Mental Hygiene will review your complaint within 24 hours.  Complaints of this type usually result in complainant contact and/or inspection by the agency. Initial status will be available 14 days after the date of your complaint by calling 311. If you are experiencing medical symptoms, please seek medical attention or consult the NYC Poison Control Center which can be reached through 311.   Please note your Service Request number for future reference.","PHONE",40.669752631997,-73.8608251861236
41318908,"2019-01-01 00:00:00+00","2019-01-02 00:00:01+00","Closed","09 BRONX","1600 BRUCKNER BOULEVARD, BRONX, NY 10473","BRUCKNER EXPRESSWAY EXIT 52 EB & PEDESTRIAN OVERPASS",NULL,"Restaurant/Bar/Deli/Bakery","N/A","ADDRESS",NULL,"DOHMH","Department of Health and Mental Hygiene","Food Poisoning","3 or More","Callers should contact the DOHMH Foodborne Illness unit directly at (646) 632-6103 weekdays from 9AM to 5PM.  DOHMH will review your complaint within 24 hours.  Complaints of this type usually result in complainant contact and/or inspection. Initial status will be available 14 days after the date of your complaint. If you are experiencing medical symptoms, please seek medical attention or consult the NYC Poison Control Center.  Please note your Service Request number for future reference.","PHONE",40.8238917299639,-73.8746050108081
41318923,"2019-01-01 00:00:00+00","2019-01-07 00:00:00+00","Closed","Unspecified QUEENS","34-01 STEINWAY STREET, LONG ISLAND CITY, NY 11101",NULL,NULL,"Other (Explain Below)","N/A","LATLONG",NULL,"DOHMH","Department of Health and Mental Hygiene","Rodent","Mouse Sighting","The Department of Health and Mental Hygiene will review your complaint to determine appropriate action.  Complaints of this type usually result in an inspection.  Please call 311 in 30 days from the date of your complaint for status","MOBILE",40.7562228629084,-73.9207282376355
41318948,"2019-01-01 00:00:00+00","2019-01-01 00:00:00+00","Closed","05 BROOKLYN","790 ELDERTS LANE, BROOKLYN, NY 11208","DUMONT AVENUE & LINDEN BOULEVARD",NULL,"3+ Family Apt. Building","N/A","ADDRESS",NULL,"DOHMH","Department of Health and Mental Hygiene","Rodent","Mouse Sighting","The Department of Health and Mental Hygiene will review your complaint to determine appropriate action.  Complaints of this type usually result in an inspection.  Please call 311 in 30 days from the date of your complaint for status","PHONE",40.6705540987998,-73.8631053928292
41319057,"2019-01-01 00:00:00+00","2019-01-03 00:00:00+00","Closed","Unspecified BRONX","2149 WALLACE AVENUE, BRONX, NY 10462",NULL,NULL,"Vacant Building","N/A","LATLONG",NULL,"DOHMH","Department of Health and Mental Hygiene","Rodent","Condition Attracting Rodents","The Department of Health and Mental Hygiene will review your complaint to determine appropriate action.  Complaints of this type usually result in an inspection.  Please call 311 in 30 days from the date of your complaint for status","MOBILE",40.8546684346122,-73.8650941740885
41319206,"2019-01-01 00:00:00+00","2019-01-14 00:00:00+00","Closed","03 MANHATTAN","54 HENRY STREET, NEW YORK, NY 10002","CATHERINE STREET & MARKET STREET",NULL,"3+ Family Apt. Building","N/A","ADDRESS",NULL,"DOHMH","Department of Health and Mental Hygiene","Rodent","Rat Sighting","The Department of Health and Mental Hygiene will review your complaint to determine appropriate action.  Complaints of this type usually result in an inspection.  Please call 311 in 30 days from the date of your complaint for status","PHONE",40.7129488071119,-73.9952313442263
41319214,"2019-01-01 00:00:00+00","2019-01-11 00:00:00+00","Closed","07 MANHATTAN","52 WEST  105 STREET, NEW YORK, NY 10025","MANHATTAN AVENUE & COLUMBUS AVENUE",NULL,"3+ Family Apt. Building","N/A","ADDRESS",NULL,"DOHMH","Department of Health and Mental Hygiene","Rodent","Rat Sighting","The Department of Health and Mental Hygiene will review your complaint to determine appropriate action.  Complaints of this type usually result in an inspection.  Please call 311 in 30 days from the date of your complaint for status","PHONE",40.798084716981,-73.9622353751121
41450894,"2019-01-01 00:00:12+00","2019-01-17 08:36:51+00","Closed","02 BROOKLYN","435 GRAND AVENUE, BROOKLYN, NY 11238",NULL,NULL,"RESIDENTIAL BUILDING","N/A","ADDRESS",NULL,"HPD","Department of Housing Preservation and Development","DOOR/WINDOW","DOOR FRAME","The Department of Housing Preservation and Development was not able to gain access to inspect the following conditions. The complaint has been closed. If the condition still exists, please file a new complaint.","PHONE",40.6830218346112,-73.9617236519964
41312454,"2019-01-01 00:00:29+00","2019-01-01 02:22:46+00","Closed","06 BROOKLYN","135 RICHARDS STREET, BROOKLYN, NY 11231","KING STREET & SULLIVAN STREET",NULL,"Residential Building/House","Precinct","ADDRESS",NULL,"NYPD","New York City Police Department","Noise - Residential","Loud Music/Party","The Police Department responded to the complaint and a report was prepared.","MOBILE",40.6772005817702,-74.0103505840005
41310350,"2019-01-01 00:00:43+00","2019-01-01 02:21:44+00","Closed","08 QUEENS","192-20C 67 AVENUE, FRESH MEADOWS, NY 11365","192 STREET & 194 LANE",NULL,"Residential Building/House","Precinct","ADDRESS",NULL,"NYPD","New York City Police Department","Noise - Residential","Loud Music/Party","The Police Department responded to the complaint but officers were unable to gain entry into the premises.","ONLINE",40.7380615861393,-73.7812770245911
41309987,"2019-01-01 00:01:20+00","2019-01-01 00:02:12+00","Closed","14 QUEENS","1085 BEACH 21 STREET, FAR ROCKAWAY, NY 11691","CORNAGA AVENUE & CENTRAL AVENUE",NULL,"Street","N/A","ADDRESS",NULL,"TLC","Taxi and Limousine Commission","For Hire Vehicle Report","Car Service Company Report","Your report has been sent to the Taxi and Limousine Commission (TLC). You are not available to participate in a hearing so TLC cannot take any action against the driver or car service company. No further information will be available for your report.","ONLINE",40.6039889714055,-73.753701911415
41308979,"2019-01-01 00:01:26+00","2019-01-01 00:45:45+00","Closed","12 QUEENS","197-10 91 ROAD, HOLLIS, NY 11423","197 STREET & DEAD END",NULL,"Street/Sidewalk","Precinct","ADDRESS",NULL,"NYPD","New York City Police Department","Blocked Driveway","No Access","The Police Department responded to the complaint and with the information available observed no evidence of the violation at that time.","MOBILE",40.714158184215,-73.7622768226277
41314513,"2019-01-01 00:01:40+00","2019-01-01 03:22:11+00","Closed","07 QUEENS","56-28 138 STREET, FLUSHING, NY 11355","56 AVENUE & BOOTH MEMORIAL AVENUE",NULL,"Street/Sidewalk","Precinct","ADDRESS",NULL,"NYPD","New York City Police Department","Blocked Driveway","No Access","The Police Department responded to the complaint and with the information available observed no evidence of the violation at that time.","PHONE",40.7478283478186,-73.8270077159051
41307350,"2019-01-01 00:02:13+00","2019-01-02 02:07:11+00","Closed","03 MANHATTAN","106 3 AVENUE, NEW YORK, NY 10003","EAST 13 STREET & EAST 14 STREET",NULL,"Club/Bar/Restaurant","Precinct","ADDRESS",NULL,"NYPD","New York City Police Department","Noise - Commercial","Loud Music/Party","The Police Department responded to the complaint and with the information available observed no evidence of the violation at that time.","ONLINE",40.7327104980585,-73.9876165807211
41311099,"2019-01-01 00:02:27+00","2019-01-01 00:46:45+00","Closed","12 QUEENS","197-11 91 ROAD, HOLLIS, NY 11423","197 STREET & DEAD END",NULL,"Street/Sidewalk","Precinct","ADDRESS",NULL,"NYPD","New York City Police Department","Blocked Driveway","Partial Access","The Police Department responded to the complaint and with the information available observed no evidence of the violation at that time.","MOBILE",40.7141746154766,-73.7622587278633
41320918,"2019-01-01 00:02:46+00","2019-01-02 22:10:00+00","Closed","09 MANHATTAN","BROADWAY, NEW YORK, NY 10027","WEST  131 STREET & WEST  132 STREET",NULL,NULL,"N/A","BLOCKFACE",NULL,"DOT","Department of Transportation","Street Condition","Pothole","The Department of Transportation inspected this complaint and repaired the problem.","UNKNOWN",40.8178612541493,-73.9567109593058
41316993,"2019-01-01 00:03:00+00","2019-01-01 01:20:00+00","Closed","08 BRONX","2710 FAIRFIELD AVENUE, BRONX, NY 10463","W 227 ST & DEAD END",NULL,NULL,"N/A","ADDRESS",NULL,"DEP","Department of Environmental Protection","Hazardous Materials","Chemical Odor (HD1)",NULL,"PHONE",40.880914951253,-73.9161243243809
41313215,"2019-01-01 00:03:08+00","2019-01-01 07:01:51+00","Closed","10 QUEENS","103-21 106 STREET, OZONE PARK, NY 11417","103 AVENUE & LIBERTY AVENUE",NULL,"Residential Building/House","Precinct","ADDRESS",NULL,"NYPD","New York City Police Department","Noise - Residential","Loud Music/Party","The Police Department responded to the complaint and with the information available observed no evidence of the violation at that time.","ONLINE",40.684310707316,-73.8356781303949
41310823,"2019-01-01 00:03:30+00","2019-01-01 03:08:49+00","Closed","18 BROOKLYN","1422 EAST 55 STREET, BROOKLYN, NY 11234","AVENUE L & AVENUE M",NULL,"Street/Sidewalk","Precinct","ADDRESS",NULL,"NYPD","New York City Police Department","Illegal Parking","Blocked Hydrant","The Police Department responded to the complaint and with the information available observed no evidence of the violation at that time.","MOBILE",40.6222380281967,-73.9224003133257
41311525,"2019-01-01 00:04:00+00","2019-01-01 01:20:00+00","Closed","04 BROOKLYN",NULL,NULL,NULL,NULL,"N/A","INTERSECTION",NULL,"DOT","Department of Transportation","Traffic Signal Condition","Controller","Service Request status for this request is available on the Department of Transportations website. Please click the Learn More link below.","UNKNOWN",40.6968717809313,-73.9230238838229
41311195,"2019-01-01 00:04:19+00","2019-01-01 03:35:33+00","Closed","04 QUEENS","40-18 CASE STREET, ELMHURST, NY 11373","ELMHURST AVENUE & WHITNEY AVENUE",NULL,"Street/Sidewalk","Precinct","ADDRESS",NULL,"NYPD","New York City Police Department","Blocked Driveway","No Access","The Police Department responded and upon arrival those responsible for the condition were gone.","PHONE",40.7479876784339,-73.8760940600006
41312661,"2019-01-01 00:04:26+00","2019-07-29 12:17:22+00","Closed","0 Unspecified","95 STREET","MARINE AVENUE",NULL,"Residential Building/House",NULL,NULL,NULL,"NYPD","New York City Police Department","Noise - Residential","Banging/Pounding","Your complaint has been forwarded to the New York Police Department for a non-emergency response. Your complaint will take priority over other non-emergency complaints. 311 will have additional information in 8 hours. Please note your service request number for future reference.","ONLINE",NULL,NULL
41314022,"2019-01-01 00:04:42+00","2019-01-01 02:22:46+00","Closed","07 BROOKLYN","4605 7 AVENUE, BROOKLYN, NY 11220","46 STREET & 47 STREET",NULL,"Residential Building/House","Precinct","ADDRESS",NULL,"NYPD","New York City Police Department","Noise - Residential","Loud Music/Party","The Police Department responded to the complaint and took action to fix the condition.","PHONE",40.6445847745793,-74.0036791293667
41310349,"2019-01-01 00:04:53+00","2019-01-01 00:45:44+00","Closed","04 BROOKLYN","1540 GATES AVENUE, BROOKLYN, NY 11237","IRVING AVENUE & MYRTLE AVENUE",NULL,"Residential Building/House","Precinct","ADDRESS",NULL,"NYPD","New York City Police Department","Noise - Residential","Loud Music/Party","The Police Department responded to the complaint and with the information available observed no evidence of the violation at that time.","ONLINE",40.699128756441,-73.9125807311656
41307476,"2019-01-01 00:05:20+00","2019-01-01 01:08:05+00","Closed","06 QUEENS","101-10 QUEENS BOULEVARD, FOREST HILLS, NY 11375","67 ROAD & 102 STREET",NULL,"Club/Bar/Restaurant","Precinct","ADDRESS",NULL,"NYPD","New York City Police Department","Noise - Commercial","Loud Music/Party","The Police Department responded to the complaint and determined that police action was not necessary.","ONLINE",40.7263995807538,-73.8523149418941
41313285,"2019-01-01 00:05:43+00","2019-01-01 08:24:03+00","Closed","14 QUEENS","23-59 BROOKHAVEN AVENUE, FAR ROCKAWAY, NY 11691","BEND & AZTEC PLACE",NULL,"Street/Sidewalk","Precinct","ADDRESS",NULL,"NYPD","New York City Police Department","Blocked Driveway","Partial Access","The Police Department responded to the complaint and with the information available observed no evidence of the violation at that time.","MOBILE",40.6002556406998,-73.7600031657195
41307247,"2019-01-01 00:06:00+00","2019-01-01 01:20:00+00","Closed","01 BRONX",NULL,NULL,NULL,NULL,"N/A","INTERSECTION",NULL,"DOT","Department of Transportation","Traffic Signal Condition","Controller","Service Request status for this request is available on the Department of Transportations website. Please click the Learn More link below.","UNKNOWN",40.8196938040768,-73.9016015949238
41312746,"2019-01-01 00:06:03+00","2019-01-01 08:30:07+00","Closed","03 QUEENS","33-54 71 STREET, JACKSON HEIGHTS, NY 11372","NORTHERN BOULEVARD & 34 AVENUE",NULL,"Street/Sidewalk","Precinct","ADDRESS",NULL,"NYPD","New York City Police Department","Illegal Parking","Blocked Hydrant","The Police Department responded and upon arrival those responsible for the condition were gone.","MOBILE",40.7529280909677,-73.8953189399035
41307113,"2019-01-01 00:06:06+00","2019-01-01 02:04:14+00","Closed","17 BROOKLYN","2095 NOSTRAND AVENUE, BROOKLYN, NY 11210","FARRAGUT ROAD & GLENWOOD ROAD",NULL,"Residential Building/House","Precinct","ADDRESS",NULL,"NYPD","New York City Police Department","Noise - Residential","Loud Music/Party","The Police Department responded to the complaint and took action to fix the condition.","PHONE",40.6345572704442,-73.9478225773641
41310744,"2019-01-01 00:06:09+00","2019-01-01 07:01:51+00","Closed","10 QUEENS","103-21 106 STREET, OZONE PARK, NY 11417","103 AVENUE & LIBERTY AVENUE",NULL,"Residential Building/House","Precinct","ADDRESS",NULL,"NYPD","New York City Police Department","Noise - Residential","Loud Music/Party","The Police Department responded to the complaint and with the information available observed no evidence of the violation at that time.","ONLINE",40.684310707316,-73.8356781303949
41314256,"2019-01-01 00:07:08+00","2019-01-01 03:25:17+00","Closed","12 BROOKLYN","1315 48 STREET, BROOKLYN, NY 11219","13 AVENUE & 14 AVENUE",NULL,"Residential Building/House","Precinct","ADDRESS",NULL,"NYPD","New York City Police Department","Noise - Residential","Loud Music/Party","The Police Department responded to the complaint but officers were unable to gain entry into the premises.","PHONE",40.6352576970346,-73.9909818083042
41317827,"2019-01-01 13:51:14+00","2019-01-02 07:48:00+00","Closed","04 QUEENS",NULL,NULL,NULL,NULL,"N/A","INTERSECTION",NULL,"DOT","Department of Transportation","Street Condition","Pothole","The Department of Transportation inspected this complaint and repaired the problem.","UNKNOWN",40.7385993102514,-73.8774322464857
41311126,"2019-01-01 00:07:36+00","2019-01-01 01:31:34+00","Closed","09 BRONX","1498 EAST 172 STREET, BRONX, NY 10472","BRONX RIVER AVENUE & WHEELER AVENUE",NULL,"Street/Sidewalk","Precinct","ADDRESS",NULL,"NYPD","New York City Police Department","Blocked Driveway","No Access","The Police Department responded to the complaint and with the information available observed no evidence of the violation at that time.","PHONE",40.831073050208,-73.8808573898118
41310542,"2019-01-01 00:08:00+00","2019-01-01 02:10:00+00","Closed","07 QUEENS",NULL,NULL,NULL,NULL,"N/A","INTERSECTION",NULL,"DOT","Department of Transportation","Traffic Signal Condition","Controller","Service Request status for this request is available on the Department of Transportations website. Please click the Learn More link below.","UNKNOWN",40.7637977748968,-73.8082307821276
41317175,"2019-01-01 00:08:00+00","2019-01-01 02:15:00+00","Closed","02 BROOKLYN","7 EVERIT STREET, BROOKLYN, NY 11201","OLD FULTON ST & COLUMBIA HGTS",NULL,NULL,"N/A","ADDRESS",NULL,"DEP","Department of Environmental Protection","Sewer","Sewer Backup (Use Comments) (SA)","The Department of Environmental Protection has investigated this complaint. Surcharge conditions have been confirmed due to rain intensity or volume.","PHONE",40.7025351325369,-73.9943160154845
41306670,"2019-01-01 00:08:07+00","2019-01-01 04:57:04+00","Closed","14 BROOKLYN","100 WOODRUFF AVENUE, BROOKLYN, NY 11226","ST PAULS PLACE & OCEAN AVENUE",NULL,"Street/Sidewalk","Precinct","ADDRESS",NULL,"NYPD","New York City Police Department","Illegal Parking","Blocked Hydrant","The Police Department responded and upon arrival those responsible for the condition were gone.","MOBILE",40.6536750115202,-73.9627459908245
41312463,"2019-01-01 00:08:30+00","2019-01-01 00:57:54+00","Closed","14 QUEENS","102-02 ROCKAWAY BEACH BOULEVARD, ROCKAWAY PARK, NY 11694","BEACH 102 STREET & BEACH 105 STREET",NULL,"Residential Building/House","Precinct","ADDRESS",NULL,"NYPD","New York City Police Department","Noise - Residential","Loud Music/Party","The Police Department responded to the complaint and took action to fix the condition.","ONLINE",40.5838110333535,-73.823331963124
41309293,"2019-01-01 00:08:35+00","2019-01-01 00:58:55+00","Closed","05 BROOKLYN","893 SCHENCK AVENUE, BROOKLYN, NY 11207","STANLEY AVENUE & WORTMAN AVENUE",NULL,"Residential Building/House","Precinct","ADDRESS",NULL,"NYPD","New York City Police Department","Noise - Residential","Loud Music/Party","The Police Department responded to the complaint and with the information available observed no evidence of the violation at that time.","MOBILE",40.6584045520317,-73.8818830144458
41314140,"2019-01-01 00:09:03+00","2019-01-01 02:26:56+00","Closed","10 BROOKLYN",NULL,NULL,NULL,"Street/Sidewalk","Precinct","INTERSECTION",NULL,"NYPD","New York City Police Department","Noise - Street/Sidewalk","Loud Music/Party","The Police Department responded to the complaint and with the information available observed no evidence of the violation at that time.","ONLINE",40.6303235044418,-74.0222970285239
41310715,"2019-01-01 00:09:12+00","2019-01-01 04:59:07+00","Closed","14 BROOKLYN","21 EAST 21 STREET, BROOKLYN, NY 11226","WOODRUFF AVENUE & CATON AVENUE",NULL,"Residential Building/House","Precinct","ADDRESS",NULL,"NYPD","New York City Police Department","Noise - Residential","Loud Music/Party","The Police Department responded to the complaint and with the information available observed no evidence of the violation at that time.","PHONE",40.6538115520861,-73.9606484124857
41313570,"2019-01-01 00:10:14+00","2019-01-01 00:57:53+00","Closed","05 BROOKLYN","893 SCHENCK AVENUE, BROOKLYN, NY 11207","STANLEY AVENUE & WORTMAN AVENUE",NULL,"Residential Building/House","Precinct","ADDRESS",NULL,"NYPD","New York City Police Department","Noise - Residential","Loud Music/Party","The Police Department responded to the complaint and with the information available observed no evidence of the violation at that time.","ONLINE",40.6584045520317,-73.8818830144458
41310844,"2019-01-01 00:10:26+00","2019-01-01 10:27:36+00","Closed","01 STATEN ISLAND","112 TREADWELL AVENUE, STATEN ISLAND, NY 10302","SLAIGHT STREET & HARRISON AVENUE",NULL,"Street/Sidewalk","Precinct","ADDRESS",NULL,"NYPD","New York City Police Department","Blocked Driveway","No Access","The Police Department responded to the complaint and with the information available observed no evidence of the violation at that time.","MOBILE",40.6371293176881,-74.1381771851429
41307151,"2019-01-01 00:10:43+00","2019-01-01 00:57:53+00","Closed","14 QUEENS","102-02 ROCKAWAY BEACH BOULEVARD, ROCKAWAY PARK, NY 11694","BEACH 102 STREET & BEACH 105 STREET",NULL,"Residential Building/House","Precinct","ADDRESS",NULL,"NYPD","New York City Police Department","Noise - Residential","Loud Music/Party","The Police Department responded to the complaint and took action to fix the condition.","ONLINE",40.5838110333535,-73.823331963124
41312522,"2019-01-01 00:10:50+00","2019-01-01 01:26:26+00","Closed","11 MANHATTAN","171 EAST 115 STREET, NEW YORK, NY 10029","LEXINGTON AVENUE & 3 AVENUE",NULL,"Residential Building/House","Precinct","ADDRESS",NULL,"NYPD","New York City Police Department","Noise - Residential","Loud Music/Party","The Police Department responded to the complaint and took action to fix the condition.","MOBILE",40.7976176048,-73.9413344945833
41314230,"2019-01-01 00:10:56+00","2019-01-01 09:03:28+00","Closed","09 QUEENS","84-40 107 STREET, RICHMOND HILL, NY 11418","PARK LANE SOUTH & 85 AVENUE",NULL,"Residential Building/House","Precinct","ADDRESS",NULL,"NYPD","New York City Police Department","Noise - Residential","Banging/Pounding","The Police Department responded to the complaint and with the information available observed no evidence of the violation at that time.","MOBILE",40.7000288404529,-73.8426864106466
41309288,"2019-01-01 00:11:32+00","2019-01-01 00:30:30+00","Closed","02 MANHATTAN","95 HORATIO STREET, NEW YORK, NY 10014","WASHINGTON STREET & JOE DIMAGGIO HIGHWAY",NULL,"Residential Building/House","Precinct","ADDRESS",NULL,"NYPD","New York City Police Department","Noise - Residential","Loud Music/Party","The Police Department responded to the complaint and took action to fix the condition.","ONLINE",40.7387602869668,-74.0084909181874
41307460,"2019-01-01 00:11:53+00","2019-01-01 03:10:51+00","Closed","12 MANHATTAN","540 WEST 165 STREET, NEW YORK, NY 10032","MC KENNA SQUARE & BROADWAY",NULL,"Residential Building/House","Precinct","ADDRESS",NULL,"NYPD","New York City Police Department","Noise - Residential","Loud Music/Party","The Police Department responded to the complaint and with the information available observed no evidence of the violation at that time.","ONLINE",40.8386697816328,-73.9401815772882
41312549,"2019-01-01 00:12:05+00","2019-05-02 10:53:50+00","Closed","14 BROOKLYN","236 EAST 23 STREET, BROOKLYN, NY 11226","CORTELYOU ROAD & CLARENDON ROAD",NULL,NULL,"N/A","ADDRESS",NULL,"TLC","Taxi and Limousine Commission","Taxi Complaint","Driver Complaint","The Taxi and Limousine Commission requires you to attend a hearing to process a complaint against a yellow cab driver. Your complaint has been closed.","ONLINE",40.6436814619812,-73.9555988048467
41314043,"2019-01-01 00:12:07+00","2019-01-01 09:03:28+00","Closed","09 QUEENS","84-30 107 STREET, RICHMOND HILL, NY 11418","PARK LANE SOUTH & 85 AVENUE",NULL,"Residential Building/House","Precinct","ADDRESS",NULL,"NYPD","New York City Police Department","Noise - Residential","Banging/Pounding","The Police Department responded to the complaint and determined that police action was not necessary.","MOBILE",40.700113987214,-73.8427294872959
41308956,"2019-01-01 00:12:39+00","2019-01-01 00:59:56+00","Closed","09 BRONX","1773 WESTCHESTER AVENUE, BRONX, NY 10472","COMMONWEALTH AVENUE & ST LAWRENCE AVENUE",NULL,"Street/Sidewalk","Precinct","ADDRESS",NULL,"NYPD","New York City Police Department","Blocked Driveway","No Access","The Police Department responded and upon arrival those responsible for the condition were gone.","PHONE",40.8315470956485,-73.8675513171529
41317930,"2019-01-01 14:21:00+00","2019-01-03 00:00:00+00","Closed","02 MANHATTAN","139 THOMPSON STREET, NEW YORK, NY 10012","PRINCE STREET & WEST HOUSTON STREET",NULL,"Sidewalk","N/A","ADDRESS",NULL,"DSNY","Department of Sanitation","Request Large Bulky Item Collection","Request Large Bulky Item Collection",NULL,"PHONE",40.7266699512821,-74.0011509186094
41311646,"2019-01-01 00:12:47+00","2019-01-01 01:27:29+00","Closed","04 MANHATTAN","350 WEST 50 STREET, NEW YORK, NY 10019","8 AVENUE & 9 AVENUE",NULL,"Street/Sidewalk","Precinct","ADDRESS",NULL,"NYPD","New York City Police Department","Illegal Parking","Posted Parking Sign Violation","The Police Department responded and upon arrival those responsible for the condition were gone.","MOBILE",40.7629878376511,-73.9877914445333
41314927,"2019-01-01 00:13:00+00","2019-01-04 05:15:00+00","Closed","08 MANHATTAN",NULL,NULL,NULL,NULL,"N/A","INTERSECTION",NULL,"DEP","Department of Environmental Protection","Noise","Noise: Construction Before/After Hours (NM1)","The Department of Environmental Protection did not observe a violation of the New York City Air/Noise Code at the time of inspection and could not issue a notice of violation. If the problem still exists, please call 311 and file a new complaint. If you are outside of New York City, please call (212) NEW-YORK (212-639-9675).","PHONE",40.7641617785342,-73.9688896548288
41312460,"2019-01-01 00:13:17+00","2019-01-01 00:46:45+00","Closed","05 BRONX","1755 WEEKS AVENUE, BRONX, NY 10457","CROSS BRONX EXPRESSWAY & EAST 175 STREET",NULL,"Residential Building/House","Precinct","ADDRESS",NULL,"NYPD","New York City Police Department","Noise - Residential","Loud Music/Party","Your request can not be processed at this time because of insufficient contact information. Please create a new Service Request on NYC.gov and provide more detailed contact information.","MOBILE",40.8455676184831,-73.9075053070264
41314229,"2019-01-01 00:13:26+00","2019-01-01 07:02:51+00","Closed","10 QUEENS","109-41 111 STREET, SOUTH OZONE PARK, NY 11420","109 AVENUE & 111 AVENUE",NULL,"Residential Building/House","Precinct","ADDRESS",NULL,"NYPD","New York City Police Department","Noise - Residential","Banging/Pounding","The Police Department responded to the complaint and determined that police action was not necessary.","ONLINE",40.6800215855288,-73.8288096373962
41312515,"2019-01-01 00:13:29+00","2019-01-01 00:25:28+00","Closed","11 BROOKLYN","1650 WEST 10 STREET, BROOKLYN, NY 11223","AVENUE P & KINGS HIGHWAY",NULL,"Residential Building/House","Precinct","ADDRESS",NULL,"NYPD","New York City Police Department","Noise - Residential","Loud Music/Party","The Police Department responded to the complaint and took action to fix the condition.","PHONE",40.6065655283272,-73.9832786779277
41306473,"2019-01-01 00:13:32+00","2019-01-01 00:25:28+00","Closed","01 BROOKLYN","BAY RIDGE AVENUE, BROOKLYN, NY 11204",NULL,NULL,"Street/Sidewalk","Precinct","LATLONG",NULL,"NYPD","New York City Police Department","Noise - Street/Sidewalk","Loud Music/Party","The Police Department responded to the complaint and took action to fix the condition.","MOBILE",40.61556927205,-73.9904333789379
41309691,"2019-01-01 00:14:11+00","2019-01-01 07:26:16+00","Closed","03 BRONX","1464 BRYANT AVENUE, BRONX, NY 10460","JENNINGS STREET & EAST 172 STREET",NULL,"Street/Sidewalk","Precinct","ADDRESS",NULL,"NYPD","New York City Police Department","Blocked Driveway","No Access","The Police Department responded and upon arrival those responsible for the condition were gone.","PHONE",40.831961061216,-73.8877939269104
41309713,"2019-01-01 00:14:17+00","2019-01-01 03:37:36+00","Closed","10 BROOKLYN","7312 13 AVENUE, BROOKLYN, NY 11228","73 STREET & 74 STREET",NULL,"Residential Building/House","Precinct","ADDRESS",NULL,"NYPD","New York City Police Department","Noise - Residential","Loud Music/Party","The Police Department responded to the complaint and took action to fix the condition.","ONLINE",40.6213390474799,-74.0063614884007
41312629,"2019-01-01 00:14:27+00","2019-01-01 05:22:30+00","Closed","14 BROOKLYN","901 AVENUE H, BROOKLYN, NY 11230","EAST 9 STREET & EAST 10 STREET",NULL,"Street/Sidewalk","Precinct","ADDRESS",NULL,"NYPD","New York City Police Department","Noise - Street/Sidewalk","Loud Music/Party","The Police Department responded to the complaint and with the information available observed no evidence of the violation at that time.","MOBILE",40.6293577545575,-73.9678644985131
41308465,"2019-01-01 00:14:32+00","2019-01-01 05:05:16+00","Closed","06 BRONX","738 EAST 182 STREET, BRONX, NY 10457","CLINTON AVENUE & PROSPECT AVENUE",NULL,"Residential Building/House","Precinct","ADDRESS",NULL,"NYPD","New York City Police Department","Noise - Residential","Loud Music/Party","The Police Department responded to the complaint and took action to fix the condition.","MOBILE",40.8497280654738,-73.8855012332158
41306494,"2019-01-01 00:14:48+00","2019-01-01 04:34:41+00","Closed","08 BRONX","5095 POST ROAD, BRONX, NY 10471","DEAD END & FIELDSTON TERRACE",NULL,"Residential Building/House","Precinct","ADDRESS",NULL,"NYPD","New York City Police Department","Noise - Residential","Loud Music/Party","The Police Department responded to the complaint and with the information available observed no evidence of the violation at that time.","ONLINE",40.8952191041826,-73.8976774264272
41307489,"2019-01-01 00:15:13+00","2019-01-01 08:31:08+00","Closed","11 BRONX","2900 BARNES AVENUE, BRONX, NY 10467","ARNOW AVENUE & WILLIAMSBRIDGE ROAD",NULL,"Residential Building/House","Precinct","ADDRESS",NULL,"NYPD","New York City Police Department","Noise - Residential","Loud Music/Party","The Police Department responded to the complaint and with the information available observed no evidence of the violation at that time.","PHONE",40.8679755357866,-73.8634293262324
41346579,"2019-01-01 00:15:18+00","2019-01-05 02:04:57+00","Closed","17 BROOKLYN","388 EAST   54 STREET, BROOKLYN, NY 11203",NULL,NULL,"RESIDENTIAL BUILDING","N/A","ADDRESS",NULL,"HPD","Department of Housing Preservation and Development","HEAT/HOT WATER","APARTMENT ONLY","The Department of Housing Preservation and Development has closed this complaint administratively. More information can be found through HPD's website at www.nyc.gov/hpd by using HPDONLINE (enter your address on the home page) and entering your SR number under the complaint status option.","PHONE",40.6492574916012,-73.9262176502477
41711628,"2019-01-01 00:15:18+00","2019-02-14 08:52:27+00","Closed","17 BROOKLYN","388 EAST   54 STREET, BROOKLYN, NY 11203",NULL,NULL,"RESIDENTIAL BUILDING","N/A","ADDRESS",NULL,"HPD","Department of Housing Preservation and Development","UNSANITARY CONDITION","PESTS","The Department of Housing Preservation and Development was not able to gain access to inspect the following conditions. The complaint has been closed. If the condition still exists, please file a new complaint.","PHONE",40.6492574916012,-73.9262176502477
41306294,"2019-01-01 00:15:26+00","2019-01-01 10:25:34+00","Closed","05 QUEENS","66-37 69 STREET, MIDDLE VILLAGE, NY 11379","66 ROAD & METROPOLITAN AVENUE",NULL,"Street/Sidewalk","Precinct","ADDRESS",NULL,"NYPD","New York City Police Department","Noise - Street/Sidewalk","Loud Music/Party","The Police Department responded to the complaint and with the information available observed no evidence of the violation at that time.","MOBILE",40.713667332555,-73.8868604068096
41313222,"2019-01-01 00:15:34+00","2019-01-01 06:06:02+00","Closed","09 MANHATTAN","1650 AMSTERDAM AVENUE, NEW YORK, NY 10031","WEST 141 STREET & WEST 142 STREET",NULL,"Residential Building/House","Precinct","ADDRESS",NULL,"NYPD","New York City Police Department","Noise - Residential","Loud Music/Party","The Police Department responded to the complaint and with the information available observed no evidence of the violation at that time.","MOBILE",40.8231005918161,-73.9491778001857
41306469,"2019-01-01 00:16:11+00","2019-01-01 05:58:03+00","Closed","09 QUEENS","89-15 102 STREET, RICHMOND HILL, NY 11418","89 AVENUE & 90 AVENUE",NULL,"Residential Building/House","Precinct","ADDRESS",NULL,"NYPD","New York City Police Department","Noise - Residential","Loud Music/Party","The Police Department responded to the complaint and with the information available observed no evidence of the violation at that time.","ONLINE",40.6929275609178,-73.8442970507778
41311924,"2019-01-01 00:16:13+00","2019-01-01 05:20:29+00","Closed","01 MANHATTAN","12 JOHN STREET, NEW YORK, NY 10038","BROADWAY & NASSAU STREET",NULL,"Residential Building/House","Precinct","ADDRESS",NULL,"NYPD","New York City Police Department","Noise - Residential","Loud Music/Party","The Police Department responded to the complaint and with the information available observed no evidence of the violation at that time.","ONLINE",40.710003416284,-74.0091004439535
41314227,"2019-01-01 00:16:30+00","2019-01-01 00:36:37+00","Closed","06 MANHATTAN","411 3 AVENUE, NEW YORK, NY 10016","EAST 28 STREET & EAST 29 STREET",NULL,"Club/Bar/Restaurant","Precinct","ADDRESS",NULL,"NYPD","New York City Police Department","Noise - Commercial","Loud Music/Party","The Police Department responded to the complaint and with the information available observed no evidence of the violation at that time.","ONLINE",40.7424424064156,-73.9805055353544
41313024,"2019-01-01 00:16:38+00","2019-01-01 04:07:08+00","Closed","02 MANHATTAN","219 MULBERRY STREET, NEW YORK, NY 10012","SPRING STREET & PRINCE STREET",NULL,"Residential Building/House","Precinct","ADDRESS",NULL,"NYPD","New York City Police Department","Noise - Residential","Banging/Pounding","The Police Department responded to the complaint and with the information available observed no evidence of the violation at that time.","ONLINE",40.7223084727282,-73.9961398046391
41317458,"2019-01-01 00:17:16+00","2019-03-09 00:00:00+00","Closed","01 BROOKLYN","173 PENN STREET, BROOKLYN, NY 11211",NULL,NULL,NULL,"N/A","ADDRESS",NULL,"DOB","Department of Buildings","Building/Use","No Certificate Of Occupancy/Illegal/Contrary To CO","The Department of Buildings investigated this complaint and determined that no further action was necessary.","UNKNOWN",40.7034986413983,-73.9563452120954
41310325,"2019-01-01 00:17:24+00","2019-01-01 02:17:37+00","Closed","12 MANHATTAN","565 WEST 192 STREET, NEW YORK, NY 10040","AUDUBON AVENUE & ST NICHOLAS AVENUE",NULL,"Residential Building/House","Precinct","ADDRESS",NULL,"NYPD","New York City Police Department","Noise - Residential","Loud Music/Party","The Police Department responded to the complaint and with the information available observed no evidence of the violation at that time.","MOBILE",40.8559573177402,-73.9281645293494
41307417,"2019-01-01 00:17:28+00","2019-01-01 01:02:58+00","Closed","10 BRONX","279 CITY ISLAND AVENUE, BRONX, NY 10464","CAROLL STREET & HAWKINS STREET",NULL,"Store/Commercial","Precinct","ADDRESS",NULL,"NYPD","New York City Police Department","Noise - Commercial","Loud Music/Party","The Police Department responded to the complaint and took action to fix the condition.","MOBILE",40.8463726617561,-73.786176226747
41310750,"2019-01-01 00:17:43+00","2019-01-01 04:10:16+00","Closed","02 STATEN ISLAND","51 SEAVER AVENUE, STATEN ISLAND, NY 10306","RICHMOND ROAD & JEFFERSON STREET",NULL,"Residential Building/House","Precinct","ADDRESS",NULL,"NYPD","New York City Police Department","Noise - Residential","Loud Music/Party","The Police Department responded to the complaint but officers were unable to gain entry into the premises.","ONLINE",40.5860257312277,-74.1023708690874
41331849,"2019-01-01 00:17:55+00","2019-01-03 07:05:24+00","Closed","03 BRONX","1255 LONGFELLOW AVENUE, BRONX, NY 10459",NULL,NULL,"RESIDENTIAL BUILDING","N/A","ADDRESS",NULL,"HPD","Department of Housing Preservation and Development","HEAT/HOT WATER","ENTIRE BUILDING","The Department of Housing Preservation and Development conducted or attempted to conduct an inspection.  More information about inspection results can be found through HPD's website at www.nyc.gov/hpd by using HPDONLINE (enter your address on the home page) and entering your SR number under the complaint status option.","ONLINE",40.8291754394085,-73.8880660202654
41309617,"2019-01-01 00:18:12+00","2019-01-01 02:45:23+00","Closed","01 STATEN ISLAND",NULL,NULL,NULL,"Street/Sidewalk","Precinct","INTERSECTION",NULL,"NYPD","New York City Police Department","Noise - Street/Sidewalk","Loud Music/Party","The Police Department responded to the complaint and with the information available observed no evidence of the violation at that time.","ONLINE",40.6230538196687,-74.113263370653
41308102,"2019-01-01 00:18:29+00","2019-01-01 11:00:56+00","Closed","03 QUEENS","34-35 106 STREET, CORONA, NY 11368","34 AVENUE & 37 AVENUE",NULL,"Street/Sidewalk","Precinct","ADDRESS",NULL,"NYPD","New York City Police Department","Blocked Driveway","No Access","The Police Department responded to the complaint and with the information available observed no evidence of the violation at that time.","MOBILE",40.7552072141881,-73.862332254794
41308191,"2019-01-01 00:18:54+00","2019-01-01 02:18:39+00","Closed","12 MANHATTAN","160 BENNETT AVENUE, NEW YORK, NY 10040","WEST 187 STREET & WEST 189 STREET",NULL,"Residential Building/House","Precinct","ADDRESS",NULL,"NYPD","New York City Police Department","Noise - Residential","Loud Music/Party","The Police Department responded to the complaint and with the information available observed no evidence of the violation at that time.","ONLINE",40.8554093121255,-73.9343393360526
41314059,"2019-01-01 00:18:57+00","2019-01-01 03:26:19+00","Closed","12 BROOKLYN","846 MCDONALD AVENUE, BROOKLYN, NY 11218","DITMAS AVENUE & AVENUE F",NULL,"Residential Building/House","Precinct","ADDRESS",NULL,"NYPD","New York City Police Department","Noise - Residential","Loud Music/Party","The Police Department responded to the complaint and took action to fix the condition.","MOBILE",40.6336886176373,-73.977716258615
41313192,"2019-01-01 00:19:19+00","2019-01-01 01:03:59+00","Closed","10 BRONX","919 HUNTINGTON AVENUE, BRONX, NY 10465","LAFAYETTE AVENUE & BARKLEY AVENUE",NULL,"Residential Building/House","Precinct","ADDRESS",NULL,"NYPD","New York City Police Department","Noise - Residential","Loud Music/Party","The Police Department responded to the complaint and took action to fix the condition.","PHONE",40.8276587199448,-73.8304930406812
41308500,"2019-01-01 00:19:39+00","2019-01-01 03:06:47+00","Closed","12 MANHATTAN",NULL,NULL,NULL,"Residential Building/House","Precinct","INTERSECTION",NULL,"NYPD","New York City Police Department","Noise - Residential","Loud Music/Party","The Police Department responded to the complaint and with the information available observed no evidence of the violation at that time.","ONLINE",40.8380581353752,-73.9466402321655
41310394,"2019-01-01 00:19:43+00","2019-01-01 01:48:58+00","Closed","12 MANHATTAN","138 HAVEN AVENUE, NEW YORK, NY 10032","WEST 172 STREET & WEST 173 STREET",NULL,"Residential Building/House","Precinct","ADDRESS",NULL,"NYPD","New York City Police Department","Noise - Residential","Loud Music/Party","The Police Department responded to the complaint and with the information available observed no evidence of the violation at that time.","ONLINE",40.8455958273748,-73.942434315502
41307389,"2019-01-01 00:19:52+00","2019-01-01 01:59:10+00","Closed","01 BROOKLYN","97 WYTHE AVENUE, BROOKLYN, NY 11249","NORTH 10 STREET & NORTH 9 STREET",NULL,"Store/Commercial","Precinct","ADDRESS",NULL,"NYPD","New York City Police Department","Noise - Commercial","Loud Music/Party","The Police Department responded to the complaint and took action to fix the condition.","MOBILE",40.7210385735396,-73.9587904925022
41314261,"2019-01-01 00:19:55+00","2019-01-01 07:34:21+00","Closed","02 QUEENS","41-59 55 STREET, WOODSIDE, NY 11377","ROOSEVELT AVENUE & QUEENS BOULEVARD",NULL,"Residential Building/House","Precinct","ADDRESS",NULL,"NYPD","New York City Police Department","Noise - Residential","Loud Music/Party","The Police Department responded to the complaint and with the information available observed no evidence of the violation at that time.","MOBILE",40.7436027424487,-73.9098518530152
41308015,"2019-01-01 00:20:05+00","2019-01-01 09:05:30+00","Closed","09 QUEENS","90-17 78 STREET, WOODHAVEN, NY 11421","90 AVENUE & 90 ROAD",NULL,"Street/Sidewalk","Precinct","ADDRESS",NULL,"NYPD","New York City Police Department","Blocked Driveway","No Access","The Police Department responded and upon arrival those responsible for the condition were gone.","MOBILE",40.6873792222443,-73.8628040236832
41308187,"2019-01-01 00:20:09+00","2019-01-01 00:55:51+00","Closed","15 BROOKLYN",NULL,NULL,NULL,"Residential Building/House","Precinct","INTERSECTION",NULL,"NYPD","New York City Police Department","Noise - Residential","Loud Music/Party","The Police Department responded to the complaint and with the information available observed no evidence of the violation at that time.","PHONE",40.5989237701147,-73.9358051007965
41312964,"2019-01-01 00:20:21+00","2019-01-01 04:16:22+00","Closed","10 MANHATTAN","2949 8 AVENUE, NEW YORK, NY 10039","MACOMBS DAM BRIDGE & HARLEM RIVER DRIVE",NULL,"Residential Building/House","Precinct","ADDRESS",NULL,"NYPD","New York City Police Department","Noise - Residential","Loud Music/Party","The Police Department responded to the complaint and took action to fix the condition.","ONLINE",40.8298656742523,-73.9367783561208
41314067,"2019-01-01 00:20:30+00","2019-01-01 02:18:40+00","Closed","12 MANHATTAN","130 WADSWORTH AVENUE, NEW YORK, NY 10033","WEST 179 STREET & WEST 180 STREET",NULL,"Residential Building/House","Precinct","ADDRESS",NULL,"NYPD","New York City Police Department","Noise - Residential","Loud Music/Party","The Police Department responded to the complaint and took action to fix the condition.","PHONE",40.8489297991646,-73.9356397330157
41306288,"2019-01-01 00:21:04+00","2019-01-01 03:03:42+00","Closed","18 BROOKLYN","1259 EAST 68 STREET, BROOKLYN, NY 11234","AVENUE L & AVENUE M",NULL,"Street/Sidewalk","Precinct","ADDRESS",NULL,"NYPD","New York City Police Department","Noise - Street/Sidewalk","Loud Music/Party","The Police Department responded to the complaint and with the information available observed no evidence of the violation at that time.","MOBILE",40.6237403792215,-73.9159431860024
41312448,"2019-01-01 00:21:06+00","2019-01-01 02:30:02+00","Closed","12 QUEENS","138-28 90 AVENUE, JAMAICA, NY 11435","138 PLACE & 139 STREET",NULL,"Residential Building/House","Precinct","ADDRESS",NULL,"NYPD","New York City Police Department","Noise - Residential","Loud Music/Party","The Police Department responded to the complaint and took action to fix the condition.","MOBILE",40.7012446593587,-73.8132290412344
41312031,"2019-01-01 00:21:33+00","2019-01-01 06:06:10+00","Closed","09 MANHATTAN","1650 AMSTERDAM AVENUE, NEW YORK, NY 10031","WEST 141 STREET & WEST 142 STREET",NULL,"Residential Building/House","Precinct","ADDRESS",NULL,"NYPD","New York City Police Department","Noise - Residential","Banging/Pounding","The Police Department responded to the complaint and with the information available observed no evidence of the violation at that time.","MOBILE",40.8231005918161,-73.9491778001857
41309887,"2019-01-01 00:21:48+00","2019-01-01 09:44:55+00","Closed","05 QUEENS","66-04 79 PLACE, MIDDLE VILLAGE, NY 11379","JUNIPER VALLEY ROAD & METROPOLITAN AVENUE",NULL,"Residential Building/House","Precinct","ADDRESS",NULL,"NYPD","New York City Police Department","Noise - Residential","Loud Music/Party","The Police Department responded to the complaint and with the information available observed no evidence of the violation at that time.","ONLINE",40.7154260833969,-73.8730811805627
41386429,"2019-01-01 00:22:18+00","2019-01-11 07:02:17+00","Closed","06 BROOKLYN","154 14 STREET, BROOKLYN, NY 11215",NULL,NULL,"RESIDENTIAL BUILDING","N/A","ADDRESS",NULL,"HPD","Department of Housing Preservation and Development","ELECTRIC","NO LIGHTING","The Department of Housing Preservation and Development inspected the following conditions. No violations were issued. The complaint has been closed.","ONLINE",40.6679728714286,-73.9925670667126
41329114,"2019-01-01 00:22:25+00","2019-01-03 08:49:27+00","Closed","12 BROOKLYN","1245 50 STREET, BROOKLYN, NY 11219",NULL,NULL,"RESIDENTIAL BUILDING","N/A","ADDRESS",NULL,"HPD","Department of Housing Preservation and Development","HEAT/HOT WATER","ENTIRE BUILDING","The Department of Housing Preservation and Development inspected the following conditions. Violations were issued. Information about specific violations is available at www.nyc.gov/hpd.","ONLINE",40.6351673078308,-73.993842561439
41310348,"2019-01-01 00:22:55+00","2019-01-01 02:27:58+00","Closed","12 QUEENS","88-06 PARSONS BOULEVARD, JAMAICA, NY 11432","88 AVENUE & 89 AVENUE",NULL,"Residential Building/House","Precinct","ADDRESS",NULL,"NYPD","New York City Police Department","Noise - Residential","Loud Music/Party","The Police Department responded to the complaint and took action to fix the condition.","ONLINE",40.7065537107536,-73.8021268161826
41310510,"2019-01-01 00:23:06+00","2019-01-01 07:37:24+00","Closed","03 STATEN ISLAND","979 RENSSELAER AVENUE, STATEN ISLAND, NY 10309","FOSTER ROAD & LENEVAR AVENUE",NULL,"Street/Sidewalk","Precinct","ADDRESS",NULL,"NYPD","New York City Police Department","Noise - Street/Sidewalk","Loud Talking","The Police Department responded to the complaint and with the information available observed no evidence of the violation at that time.","MOBILE",40.5374165912526,-74.2071904915184
41314133,"2019-01-01 00:23:20+00","2019-01-01 05:20:29+00","Closed","01 MANHATTAN","176 BROADWAY, NEW YORK, NY 10038","CORTLANDT STREET & JOHN STREET",NULL,"Residential Building/House","Precinct","ADDRESS",NULL,"NYPD","New York City Police Department","Noise - Residential","Loud Music/Party","The Police Department responded to the complaint and with the information available observed no evidence of the violation at that time.","ONLINE",40.709931989151,-74.0098687229427
41314032,"2019-01-01 00:23:20+00","2019-01-01 02:17:38+00","Closed","12 MANHATTAN","227 DYCKMAN STREET, NEW YORK, NY 10034","BROADWAY & SEAMAN AVENUE",NULL,"Store/Commercial","Precinct","ADDRESS",NULL,"NYPD","New York City Police Department","Noise - Commercial","Loud Music/Party","The Police Department responded and upon arrival those responsible for the condition were gone.","MOBILE",40.8658269058158,-73.9276007046568
41310393,"2019-01-01 00:23:46+00","2019-01-01 01:05:00+00","Closed","05 BROOKLYN","605 SUTTER AVENUE, BROOKLYN, NY 11207","GEORGIA AVENUE & SHEFFIELD AVENUE",NULL,"Residential Building/House","Precinct","ADDRESS",NULL,"NYPD","New York City Police Department","Noise - Residential","Loud Music/Party","The Police Department responded to the complaint and took action to fix the condition.","PHONE",40.6691809783541,-73.8965678627025
41307171,"2019-01-01 00:24:11+00","2019-07-29 12:17:23+00","Closed","0 Unspecified","12202 STREET","25TH ROAD",NULL,"Residential Building/House",NULL,NULL,NULL,"NYPD","New York City Police Department","Noise - Residential","Loud Music/Party","Your complaint has been forwarded to the New York Police Department for a non-emergency response. Your complaint will take priority over other non-emergency complaints. 311 will have additional information in 8 hours. Please note your service request number for future reference.","ONLINE",NULL,NULL
41306359,"2019-01-01 00:24:12+00","2019-01-01 02:42:19+00","Closed","12 BROOKLYN","1315 48 STREET, BROOKLYN, NY 11219","13 AVENUE & 14 AVENUE",NULL,"Residential Building/House","Precinct","ADDRESS",NULL,"NYPD","New York City Police Department","Illegal Fireworks","N/A","The Police Department responded to the complaint and with the information available observed no evidence of the violation at that time.","PHONE",40.6352576970346,-73.9909818083042
41313273,"2019-01-01 00:24:28+00","2019-01-01 13:51:33+00","Closed","05 BRONX","106 EAST 182 STREET, BRONX, NY 10453","MORRIS AVENUE & CRESTON AVENUE",NULL,"Street/Sidewalk","Precinct","ADDRESS",NULL,"NYPD","New York City Police Department","Blocked Driveway","No Access","The Police Department responded to the complaint and with the information available observed no evidence of the violation at that time.","PHONE",40.8566439063306,-73.9025410394558
41310732,"2019-01-01 00:24:35+00","2019-01-01 08:30:07+00","Closed","01 QUEENS","31-37 43 STREET, ASTORIA, NY 11103","31 AVENUE & BROADWAY",NULL,"Residential Building/House","Precinct","ADDRESS",NULL,"NYPD","New York City Police Department","Noise - Residential","Loud Music/Party","The Police Department responded to the complaint and with the information available observed no evidence of the violation at that time.","ONLINE",40.7592301046426,-73.9154617735472
41332461,"2019-01-03 12:40:00+00","2019-01-03 12:40:00+00","Pending","13 QUEENS",NULL,NULL,NULL,"Street","DSNY Garage","INTERSECTION",NULL,"DSNY","BCC - Queens East","Derelict Vehicles","14 Derelict Vehicles","The Department of Sanitation removed the items.","PHONE",40.7168778359314,-73.7416978431782
41394838,"2019-01-01 00:24:38+00","2019-01-11 12:54:25+00","Closed","09 QUEENS","83-31 116 STREET, Richmond Hill, NY 11418",NULL,NULL,"RESIDENTIAL BUILDING","N/A","ADDRESS",NULL,"HPD","Department of Housing Preservation and Development","WATER LEAK","HEAVY FLOW","The Department of Housing Preservation and Development inspected the following conditions. No violations were issued. The complaint has been closed.","PHONE",40.7056380989832,-73.8360331226578
41307569,"2019-01-01 00:24:55+00","2019-01-01 03:33:30+00","Closed","07 BRONX","2575 SEDGEWICK AVENUE, BRONX, NY 10468","BAILEY AVENUE & BEND",NULL,"Residential Building/House","Precinct","ADDRESS",NULL,"NYPD","New York City Police Department","Noise - Residential","Loud Music/Party","The Police Department responded to the complaint and with the information available observed no evidence of the violation at that time.","PHONE",40.8681230831849,-73.9068845955087
41307519,"2019-01-01 00:25:14+00","2019-01-01 07:02:52+00","Closed","10 QUEENS","103-40 118 STREET, SOUTH RICHMOND HILL, NY 11419","103 AVENUE & LIBERTY AVENUE",NULL,"Residential Building/House","Precinct","ADDRESS",NULL,"NYPD","New York City Police Department","Noise - Residential","Loud Music/Party","The Police Department responded to the complaint and with the information available observed no evidence of the violation at that time.","ONLINE",40.686971917826,-73.8255249802415
41312631,"2019-01-01 00:25:22+00","2019-01-01 09:27:44+00","Closed","05 QUEENS","552 GRAND VIEW AVENUE, RIDGEWOOD, NY 11385","BLEECKER STREET & MENAHAN STREET",NULL,"Club/Bar/Restaurant","Precinct","ADDRESS",NULL,"NYPD","New York City Police Department","Noise - Commercial","Loud Music/Party","The Police Department responded to the complaint and with the information available observed no evidence of the violation at that time.","PHONE",40.7092332711113,-73.906893741766
41313727,"2019-01-01 00:25:24+00","2019-01-01 07:26:17+00","Closed","03 BRONX","932 EAST 173 STREET, BRONX, NY 10460","SOUTHERN BOULEVARD & HOE AVENUE",NULL,"Street/Sidewalk","Precinct","ADDRESS",NULL,"NYPD","New York City Police Department","Noise - Street/Sidewalk","Loud Talking","The Police Department responded to the complaint and took action to fix the condition.","ONLINE",40.8355048637833,-73.888181854417
41309892,"2019-01-01 00:25:28+00","2019-01-01 00:54:50+00","Closed","07 MANHATTAN","300 WEST 82 STREET, NEW YORK, NY 10024","WEST END AVENUE & RIVERSIDE DRIVE",NULL,"Street/Sidewalk","Precinct","ADDRESS",NULL,"NYPD","New York City Police Department","Noise - Street/Sidewalk","Loud Talking","The Police Department responded to the complaint and took action to fix the condition.","MOBILE",40.7863828884128,-73.979972666943
41309710,"2019-01-01 00:25:42+00","2019-01-01 05:09:20+00","Closed","12 BRONX","4044 CARPENTER AVENUE, BRONX, NY 10466","EAST 227 STREET & EAST 228 STREET",NULL,"Residential Building/House","Precinct","ADDRESS",NULL,"NYPD","New York City Police Department","Noise - Residential","Loud Music/Party","The Police Department responded to the complaint and with the information available observed no evidence of the violation at that time.","ONLINE",40.8906892021833,-73.8622397525094
41314266,"2019-01-01 00:25:55+00","2019-01-01 01:04:00+00","Closed","11 BROOKLYN","230 QUENTIN ROAD, BROOKLYN, NY 11223","WEST 5 STREET & WEST 4 STREET",NULL,"Street/Sidewalk","Precinct","ADDRESS",NULL,"NYPD","New York City Police Department","Noise - Street/Sidewalk","Loud Music/Party","The Police Department responded to the complaint and with the information available observed no evidence of the violation at that time.","ONLINE",40.6060924883693,-73.9777614833775
41311416,"2019-01-01 00:26:02+00","2019-01-01 00:46:45+00","Closed","05 BRONX","1755 WEEKS AVENUE, BRONX, NY 10457","CROSS BRONX EXPRESSWAY & EAST 175 STREET",NULL,"Residential Building/House","Precinct","ADDRESS",NULL,"NYPD","New York City Police Department","Noise - Residential","Loud Music/Party","Your request can not be processed at this time because of insufficient contact information. Please create a new Service Request on NYC.gov and provide more detailed contact information.","MOBILE",40.8455676184831,-73.9075053070264
41308540,"2019-01-01 00:26:12+00","2019-01-01 10:39:42+00","Closed","05 QUEENS","52-54 65 PLACE, MASPETH, NY 11378","62 STREET & 53 AVENUE",NULL,"Residential Building/House","Precinct","ADDRESS",NULL,"NYPD","New York City Police Department","Noise - Residential","Loud Music/Party","The Police Department responded to the complaint and with the information available observed no evidence of the violation at that time.","PHONE",40.7323686707106,-73.9001212867844
41314312,"2019-01-01 00:26:19+00","2019-01-01 09:47:57+00","Closed","01 BRONX","813 COURTLAND AVENUE, BRONX, NY 10451","EAST 158 STREET & EAST 159 STREET",NULL,"Street/Sidewalk","Precinct","ADDRESS",NULL,"NYPD","New York City Police Department","Blocked Driveway","No Access","The Police Department responded to the complaint and took action to fix the condition.","PHONE",40.8231336440229,-73.9164103306419
41308463,"2019-01-01 00:28:07+00","2019-01-01 10:39:42+00","Closed","05 QUEENS","54-18 ARNOLD AVENUE, MASPETH, NY 11378","54 STREET & 54 PLACE",NULL,"Residential Building/House","Precinct","ADDRESS",NULL,"NYPD","New York City Police Department","Noise - Residential","Loud Music/Party","The Police Department responded to the complaint and with the information available observed no evidence of the violation at that time.","ONLINE",40.713638596389,-73.9103252420413
41314626,"2019-01-01 00:28:08+00","2019-01-01 02:20:42+00","Closed","12 MANHATTAN","30 DONGAN PLACE, NEW YORK, NY 10040","BEND & ARDEN STREET",NULL,"Residential Building/House","Precinct","ADDRESS",NULL,"NYPD","New York City Police Department","Noise - Residential","Loud Music/Party","The Police Department responded to the complaint and with the information available observed no evidence of the violation at that time.","ONLINE",40.8635383480172,-73.9284347201679
41309605,"2019-01-01 00:28:14+00","2019-01-01 05:09:20+00","Closed","12 BRONX","4044 CARPENTER AVENUE, BRONX, NY 10466","EAST 227 STREET & EAST 228 STREET",NULL,"Residential Building/House","Precinct","ADDRESS",NULL,"NYPD","New York City Police Department","Noise - Residential","Loud Music/Party","The Police Department responded to the complaint and with the information available observed no evidence of the violation at that time.","ONLINE",40.8906892021833,-73.8622397525094
41308828,"2019-01-01 00:28:23+00","2019-01-01 15:12:25+00","Closed","04 BRONX",NULL,NULL,NULL,"Street/Sidewalk","Precinct","INTERSECTION",NULL,"NYPD","New York City Police Department","Illegal Parking","Double Parked Blocking Vehicle","The Police Department responded and upon arrival those responsible for the condition were gone.","PHONE",40.8419615655636,-73.9152951996638
41308346,"2019-01-01 00:28:25+00","2019-01-01 04:19:24+00","Closed","06 MANHATTAN","230 EAST 44 STREET, NEW YORK, NY 10017","3 AVENUE & 2 AVENUE",NULL,"Club/Bar/Restaurant","Precinct","ADDRESS",NULL,"NYPD","New York City Police Department","Noise - Commercial","Loud Music/Party","The Police Department responded and upon arrival those responsible for the condition were gone.","PHONE",40.7517125808868,-73.9726924017047
41308595,"2019-01-01 00:28:27+00","2019-01-01 01:02:57+00","Closed","11 BROOKLYN","1412 WEST 5 STREET, BROOKLYN, NY 11204","65 STREET & AVENUE O",NULL,"Street/Sidewalk","Precinct","ADDRESS",NULL,"NYPD","New York City Police Department","Illegal Parking","Commercial Overnight Parking","The Police Department responded to the complaint and determined that police action was not necessary.","MOBILE",40.6122438917776,-73.979470246947
41307578,"2019-01-01 00:28:34+00","2019-01-01 05:27:34+00","Closed","02 BROOKLYN","100 BERGEN STREET, BROOKLYN, NY 11201","SMITH STREET & HOYT STREET",NULL,"Residential Building/House","Precinct","ADDRESS",NULL,"NYPD","New York City Police Department","Noise - Residential","Loud Music/Party","The Police Department responded to the complaint and with the information available observed no evidence of the violation at that time.","PHONE",40.6863708614359,-73.9895866953966
41306914,"2019-01-01 00:29:00+00","2019-01-01 00:30:00+00","Closed","05 BROOKLYN",NULL,NULL,NULL,NULL,"N/A","INTERSECTION",NULL,"DOT","Department of Transportation","Traffic Signal Condition","Veh Signal Lamp","Service Request status for this request is available on the Department of Transportations website. Please click the Learn More link below.","UNKNOWN",40.6697253498986,-73.860962226195
41316610,"2019-01-01 12:31:00+00","2019-01-02 12:00:00+00","Closed","18 BROOKLYN",NULL,NULL,NULL,"Sidewalk","N/A","INTERSECTION",NULL,"DSNY","A - Brooklyn","Dirty Conditions","E3 Dirty Sidewalk","The Department of Sanitation investigated this complaint and found no violation at the location.","ONLINE",40.6190722259763,-73.9249434607416
41308603,"2019-01-01 00:46:57+00","2019-01-01 06:10:45+00","Closed","10 BRONX","2354 MACLAY AVENUE, BRONX, NY 10462","PARKER STREET & ZEREGA AVENUE",NULL,"Street/Sidewalk","Precinct","ADDRESS",NULL,"NYPD","New York City Police Department","Blocked Driveway","No Access","The Police Department issued a summons in response to the complaint.","PHONE",40.8395501503351,-73.8513481807288
41311670,"2019-01-01 00:29:15+00","2019-01-01 03:29:25+00","Closed","06 QUEENS","64-38 108 STREET, FOREST HILLS, NY 11375","64 ROAD & 65 AVENUE",NULL,"Street/Sidewalk","Precinct","ADDRESS",NULL,"NYPD","New York City Police Department","Noise - Street/Sidewalk","Loud Music/Party","The Police Department responded and upon arrival those responsible for the condition were gone.","MOBILE",40.732107373178,-73.849188419348
41307344,"2019-01-01 00:29:18+00","2019-01-01 14:55:13+00","Closed","11 BRONX","2355 ELY AVENUE, BRONX, NY 10469","STILLWELL AVENUE & WARING AVENUE",NULL,"Store/Commercial","Precinct","ADDRESS",NULL,"NYPD","New York City Police Department","Noise - Commercial","Banging/Pounding","The Police Department responded to the complaint and with the information available observed no evidence of the violation at that time.","MOBILE",40.8603758520288,-73.8306048711616
